{
"type": "FeatureCollection",
"name": "WalmartStoreLoc",
"crs": { "type": "name", "properties": { "name": "urn:ogc:def:crs:OGC:1.3:CRS84" } },
"features": [
{ "type": "Feature", "properties": { "storenum": "1", "OPENDATE": "7\/1\/62", "date_super": "3\/1\/97", "conversion": "1", "st": "5", "county": "7", "STREETADDR": "2110 WEST WALNUT", "STRCITY": "Rogers", "STRSTATE": "AR", "ZIPCODE": "72756", "type_store": "Supercenter", "LAT": 36.342235, "LON": -94.07141, "MONTH": "7", "DAY": "1", "YEAR": "1962" }, "geometry": { "type": "Point", "coordinates": [ -94.07141, 36.342235 ] } },
{ "type": "Feature", "properties": { "storenum": "2", "OPENDATE": "8\/1\/64", "date_super": "3\/1\/96", "conversion": "1", "st": "5", "county": "9", "STREETADDR": "1417 HWY 62\/65 N", "STRCITY": "Harrison", "STRSTATE": "AR", "ZIPCODE": "72601", "type_store": "Supercenter", "LAT": 36.236984, "LON": -93.09345, "MONTH": "8", "DAY": "1", "YEAR": "1964" }, "geometry": { "type": "Point", "coordinates": [ -93.09345, 36.236984 ] } },
{ "type": "Feature", "properties": { "storenum": "4", "OPENDATE": "8\/1\/65", "date_super": "3\/1\/02", "conversion": "1", "st": "5", "county": "7", "STREETADDR": "2901 HWY 412 EAST", "STRCITY": "Siloam Springs", "STRSTATE": "AR", "ZIPCODE": "72761", "type_store": "Supercenter", "LAT": 36.179905, "LON": -94.50208, "MONTH": "8", "DAY": "1", "YEAR": "1965" }, "geometry": { "type": "Point", "coordinates": [ -94.50208, 36.179905 ] } },
{ "type": "Feature", "properties": { "storenum": "8", "OPENDATE": "10\/1\/67", "date_super": "3\/1\/93", "conversion": "1", "st": "5", "county": "29", "STREETADDR": "1621 NORTH BUSINESS 9", "STRCITY": "Morrilton", "STRSTATE": "AR", "ZIPCODE": "72110", "type_store": "Supercenter", "LAT": 35.156491, "LON": -92.75858, "MONTH": "10", "DAY": "1", "YEAR": "1967" }, "geometry": { "type": "Point", "coordinates": [ -92.75858, 35.156491 ] } },
{ "type": "Feature", "properties": { "storenum": "7", "OPENDATE": "10\/1\/67", "date_super": "", "conversion": "", "st": "5", "county": "119", "STREETADDR": "3801 CAMP ROBINSON RD.", "STRCITY": "North Little Rock", "STRSTATE": "AR", "ZIPCODE": "72118", "type_store": "Wal-Mart", "LAT": 34.813269, "LON": -92.30229, "MONTH": "10", "DAY": "1", "YEAR": "1967" }, "geometry": { "type": "Point", "coordinates": [ -92.30229, 34.813269 ] } },
{ "type": "Feature", "properties": { "storenum": "10", "OPENDATE": "7\/1\/68", "date_super": "3\/1\/98", "conversion": "1", "st": "40", "county": "21", "STREETADDR": "2020 SOUTH MUSKOGEE", "STRCITY": "Tahlequah", "STRSTATE": "OK", "ZIPCODE": "74464", "type_store": "Supercenter", "LAT": 35.923658, "LON": -94.97185, "MONTH": "7", "DAY": "1", "YEAR": "1968" }, "geometry": { "type": "Point", "coordinates": [ -94.97185, 35.923658 ] } },
{ "type": "Feature", "properties": { "storenum": "13", "OPENDATE": "11\/1\/68", "date_super": "3\/1\/96", "conversion": "1", "st": "29", "county": "97", "STREETADDR": "2705 GRAND AVE", "STRCITY": "Carthage", "STRSTATE": "MO", "ZIPCODE": "64836", "type_store": "Supercenter", "LAT": 37.168985, "LON": -94.31164, "MONTH": "11", "DAY": "1", "YEAR": "1968" }, "geometry": { "type": "Point", "coordinates": [ -94.31164, 37.168985 ] } },
{ "type": "Feature", "properties": { "storenum": "12", "OPENDATE": "7\/1\/68", "date_super": "3\/1\/94", "conversion": "1", "st": "40", "county": "131", "STREETADDR": "1500 LYNN RIGGS BLVD", "STRCITY": "Claremore", "STRSTATE": "OK", "ZIPCODE": "74017", "type_store": "Supercenter", "LAT": 36.327143, "LON": -95.61192, "MONTH": "7", "DAY": "1", "YEAR": "1968" }, "geometry": { "type": "Point", "coordinates": [ -95.61192, 36.327143 ] } },
{ "type": "Feature", "properties": { "storenum": "11", "OPENDATE": "3\/1\/68", "date_super": "2\/20\/02", "conversion": "1", "st": "5", "county": "5", "STREETADDR": "65 WAL-MART DRIVE", "STRCITY": "Mountain Home", "STRSTATE": "AR", "ZIPCODE": "72653", "type_store": "Supercenter", "LAT": 36.329026, "LON": -92.35781, "MONTH": "3", "DAY": "1", "YEAR": "1968" }, "geometry": { "type": "Point", "coordinates": [ -92.35781, 36.329026 ] } },
{ "type": "Feature", "properties": { "storenum": "9", "OPENDATE": "3\/1\/68", "date_super": "3\/1\/00", "conversion": "1", "st": "29", "county": "143", "STREETADDR": "1303 SOUTH MAIN", "STRCITY": "Sikeston", "STRSTATE": "MO", "ZIPCODE": "63801", "type_store": "Supercenter", "LAT": 36.891163, "LON": -89.58355, "MONTH": "3", "DAY": "1", "YEAR": "1968" }, "geometry": { "type": "Point", "coordinates": [ -89.58355, 36.891163 ] } },
{ "type": "Feature", "properties": { "storenum": "15", "OPENDATE": "5\/1\/69", "date_super": "3\/1\/95", "conversion": "1", "st": "29", "county": "91", "STREETADDR": "1310 PREACHER RD\/HGWY 160", "STRCITY": "West Plains", "STRSTATE": "MO", "ZIPCODE": "65775", "type_store": "Supercenter", "LAT": 36.719145, "LON": -91.87408, "MONTH": "5", "DAY": "1", "YEAR": "1969" }, "geometry": { "type": "Point", "coordinates": [ -91.87408, 36.719145 ] } },
{ "type": "Feature", "properties": { "storenum": "17", "OPENDATE": "5\/1\/69", "date_super": "3\/1\/93", "conversion": "1", "st": "29", "county": "145", "STREETADDR": "3200 LUSK DRIVE", "STRCITY": "Neosho", "STRSTATE": "MO", "ZIPCODE": "64850", "type_store": "Supercenter", "LAT": 36.86429, "LON": -94.39016, "MONTH": "5", "DAY": "1", "YEAR": "1969" }, "geometry": { "type": "Point", "coordinates": [ -94.39016, 36.86429 ] } },
{ "type": "Feature", "properties": { "storenum": "16", "OPENDATE": "4\/1\/69", "date_super": "3\/1\/00", "conversion": "1", "st": "5", "county": "33", "STREETADDR": "2214 FAYETTEVILLE RD", "STRCITY": "Van Buren", "STRSTATE": "AR", "ZIPCODE": "72956", "type_store": "Supercenter", "LAT": 35.456536, "LON": -94.34581, "MONTH": "4", "DAY": "1", "YEAR": "1969" }, "geometry": { "type": "Point", "coordinates": [ -94.34581, 35.456536 ] } },
{ "type": "Feature", "properties": { "storenum": "18", "OPENDATE": "11\/1\/69", "date_super": "", "conversion": "", "st": "5", "county": "67", "STREETADDR": "2500 MALCOLM ST\/HWY 67 NORTH", "STRCITY": "Newport", "STRSTATE": "AR", "ZIPCODE": "72112", "type_store": "Wal-Mart", "LAT": 35.586065, "LON": -91.24695, "MONTH": "11", "DAY": "1", "YEAR": "1969" }, "geometry": { "type": "Point", "coordinates": [ -91.24695, 35.586065 ] } },
{ "type": "Feature", "properties": { "storenum": "14", "OPENDATE": "4\/1\/69", "date_super": "3\/1\/99", "conversion": "1", "st": "29", "county": "105", "STREETADDR": "1800 S JEFFERSON", "STRCITY": "Lebanon", "STRSTATE": "MO", "ZIPCODE": "65536", "type_store": "Supercenter", "LAT": 37.678528, "LON": -92.64733, "MONTH": "4", "DAY": "1", "YEAR": "1969" }, "geometry": { "type": "Point", "coordinates": [ -92.64733, 37.678528 ] } },
{ "type": "Feature", "properties": { "storenum": "20", "OPENDATE": "10\/1\/70", "date_super": "3\/1\/99", "conversion": "1", "st": "29", "county": "83", "STREETADDR": "1712 EAST OHIO", "STRCITY": "Clinton", "STRSTATE": "MO", "ZIPCODE": "64735", "type_store": "Supercenter", "LAT": 38.364214, "LON": -93.76042, "MONTH": "10", "DAY": "1", "YEAR": "1970" }, "geometry": { "type": "Point", "coordinates": [ -93.76042, 38.364214 ] } },
{ "type": "Feature", "properties": { "storenum": "22", "OPENDATE": "10\/1\/70", "date_super": "5\/18\/05", "conversion": "1", "st": "40", "county": "97", "STREETADDR": "4901 SO. MILL ROAD", "STRCITY": "Pryor", "STRSTATE": "OK", "ZIPCODE": "74361", "type_store": "Supercenter", "LAT": 36.294174, "LON": -95.30295, "MONTH": "10", "DAY": "1", "YEAR": "1970" }, "geometry": { "type": "Point", "coordinates": [ -95.30295, 36.294174 ] } },
{ "type": "Feature", "properties": { "storenum": "21", "OPENDATE": "3\/1\/70", "date_super": "8\/22\/01", "conversion": "1", "st": "29", "county": "169", "STREETADDR": "185 ST ROBERT BLVD", "STRCITY": "St. Robert", "STRSTATE": "MO", "ZIPCODE": "65584", "type_store": "Supercenter", "LAT": 37.827415, "LON": -92.135741, "MONTH": "3", "DAY": "1", "YEAR": "1970" }, "geometry": { "type": "Point", "coordinates": [ -92.135741, 37.827415 ] } },
{ "type": "Feature", "properties": { "storenum": "23", "OPENDATE": "11\/1\/70", "date_super": "3\/1\/94", "conversion": "1", "st": "22", "county": "61", "STREETADDR": "1201 N SERVICE ROAD EAST", "STRCITY": "Ruston", "STRSTATE": "LA", "ZIPCODE": "71270", "type_store": "Supercenter", "LAT": 32.52476, "LON": -92.64696, "MONTH": "11", "DAY": "1", "YEAR": "1970" }, "geometry": { "type": "Point", "coordinates": [ -92.64696, 32.52476 ] } },
{ "type": "Feature", "properties": { "storenum": "26", "OPENDATE": "11\/1\/70", "date_super": "", "conversion": "", "st": "20", "county": "103", "STREETADDR": "3450 S. 4TH TRAFFICWAY", "STRCITY": "Leavenworth", "STRSTATE": "KS", "ZIPCODE": "66048", "type_store": "Wal-Mart", "LAT": 39.298776, "LON": -94.93555, "MONTH": "11", "DAY": "1", "YEAR": "1970" }, "geometry": { "type": "Point", "coordinates": [ -94.93555, 39.298776 ] } },
{ "type": "Feature", "properties": { "storenum": "30", "OPENDATE": "11\/1\/71", "date_super": "5\/18\/05", "conversion": "1", "st": "29", "county": "207", "STREETADDR": "2025 BUS. HWY 60 WEST", "STRCITY": "Dexter", "STRSTATE": "MO", "ZIPCODE": "63841", "type_store": "Supercenter", "LAT": 36.784453, "LON": -89.97428, "MONTH": "11", "DAY": "1", "YEAR": "1971" }, "geometry": { "type": "Point", "coordinates": [ -89.97428, 36.784453 ] } },
{ "type": "Feature", "properties": { "storenum": "27", "OPENDATE": "2\/1\/71", "date_super": "3\/1\/99", "conversion": "1", "st": "29", "county": "65", "STREETADDR": "1101 HWY 32 WEST", "STRCITY": "Salem", "STRSTATE": "MO", "ZIPCODE": "65560", "type_store": "Supercenter", "LAT": 37.630896, "LON": -91.51423, "MONTH": "2", "DAY": "1", "YEAR": "1971" }, "geometry": { "type": "Point", "coordinates": [ -91.51423, 37.630896 ] } },
{ "type": "Feature", "properties": { "storenum": "33", "OPENDATE": "6\/1\/71", "date_super": "9\/17\/03", "conversion": "1", "st": "5", "county": "61", "STREETADDR": "1710 SO. 4TH ST", "STRCITY": "Nashville", "STRSTATE": "AR", "ZIPCODE": "71852", "type_store": "Supercenter", "LAT": 33.985613, "LON": -93.85214, "MONTH": "6", "DAY": "1", "YEAR": "1971" }, "geometry": { "type": "Point", "coordinates": [ -93.85214, 33.985613 ] } },
{ "type": "Feature", "properties": { "storenum": "32", "OPENDATE": "6\/1\/71", "date_super": "", "conversion": "", "st": "29", "county": "213", "STREETADDR": "2050 WEST HWY 76", "STRCITY": "Branson", "STRSTATE": "MO", "ZIPCODE": "65616", "type_store": "Wal-Mart", "LAT": 36.64417, "LON": -93.25668, "MONTH": "6", "DAY": "1", "YEAR": "1971" }, "geometry": { "type": "Point", "coordinates": [ -93.25668, 36.64417 ] } },
{ "type": "Feature", "properties": { "storenum": "29", "OPENDATE": "8\/1\/71", "date_super": "3\/1\/89", "conversion": "1", "st": "29", "county": "51", "STREETADDR": "724 STADIUM WEST BLVD", "STRCITY": "Jefferson City", "STRSTATE": "MO", "ZIPCODE": "65109", "type_store": "Supercenter", "LAT": 38.568287, "LON": -92.25329, "MONTH": "8", "DAY": "1", "YEAR": "1971" }, "geometry": { "type": "Point", "coordinates": [ -92.25329, 38.568287 ] } },
{ "type": "Feature", "properties": { "storenum": "31", "OPENDATE": "6\/1\/71", "date_super": "3\/1\/95", "conversion": "1", "st": "40", "county": "79", "STREETADDR": "3108 N BROADWAY", "STRCITY": "Poteau", "STRSTATE": "OK", "ZIPCODE": "74953", "type_store": "Supercenter", "LAT": 35.052793, "LON": -94.61829, "MONTH": "6", "DAY": "1", "YEAR": "1971" }, "geometry": { "type": "Point", "coordinates": [ -94.61829, 35.052793 ] } },
{ "type": "Feature", "properties": { "storenum": "24", "OPENDATE": "4\/1\/71", "date_super": "3\/1\/99", "conversion": "1", "st": "5", "county": "119", "STREETADDR": "2000 JOHN HARDEN DR", "STRCITY": "Jacksonville", "STRSTATE": "AR", "ZIPCODE": "72076", "type_store": "Supercenter", "LAT": 34.879419, "LON": -92.12244, "MONTH": "4", "DAY": "1", "YEAR": "1971" }, "geometry": { "type": "Point", "coordinates": [ -92.12244, 34.879419 ] } },
{ "type": "Feature", "properties": { "storenum": "25", "OPENDATE": "2\/1\/71", "date_super": "5\/18\/05", "conversion": "1", "st": "29", "county": "7", "STREETADDR": "4820 SO. CLARK ST", "STRCITY": "Mexico", "STRSTATE": "MO", "ZIPCODE": "65265", "type_store": "Supercenter", "LAT": 39.179316, "LON": -91.88404, "MONTH": "2", "DAY": "1", "YEAR": "1971" }, "geometry": { "type": "Point", "coordinates": [ -91.88404, 39.179316 ] } },
{ "type": "Feature", "properties": { "storenum": "34", "OPENDATE": "11\/1\/71", "date_super": "5\/21\/03", "conversion": "1", "st": "29", "county": "217", "STREETADDR": "2250 LINCOLN AVENUE", "STRCITY": "Nevada", "STRSTATE": "MO", "ZIPCODE": "64772", "type_store": "Supercenter", "LAT": 37.838563, "LON": -94.35075, "MONTH": "11", "DAY": "1", "YEAR": "1971" }, "geometry": { "type": "Point", "coordinates": [ -94.35075, 37.838563 ] } },
{ "type": "Feature", "properties": { "storenum": "35", "OPENDATE": "10\/1\/71", "date_super": "3\/17\/04", "conversion": "1", "st": "20", "county": "161", "STREETADDR": "101 EAST BLUEMONT AVENUE", "STRCITY": "Manhattan", "STRSTATE": "KS", "ZIPCODE": "66502", "type_store": "Supercenter", "LAT": 39.184986, "LON": -96.56932, "MONTH": "10", "DAY": "1", "YEAR": "1971" }, "geometry": { "type": "Point", "coordinates": [ -96.56932, 39.184986 ] } },
{ "type": "Feature", "properties": { "storenum": "36", "OPENDATE": "11\/1\/71", "date_super": "3\/1\/96", "conversion": "1", "st": "5", "county": "55", "STREETADDR": "2802 WEST KINGS HIGHWAY", "STRCITY": "Paragould", "STRSTATE": "AR", "ZIPCODE": "72450", "type_store": "Supercenter", "LAT": 36.065711, "LON": -90.5102, "MONTH": "11", "DAY": "1", "YEAR": "1971" }, "geometry": { "type": "Point", "coordinates": [ -90.5102, 36.065711 ] } },
{ "type": "Feature", "properties": { "storenum": "37", "OPENDATE": "9\/1\/71", "date_super": "3\/1\/89", "conversion": "1", "st": "29", "county": "187", "STREETADDR": "701 WALTON DRIVE", "STRCITY": "Farmington", "STRSTATE": "MO", "ZIPCODE": "63640", "type_store": "Supercenter", "LAT": 37.779206, "LON": -90.41404, "MONTH": "9", "DAY": "1", "YEAR": "1971" }, "geometry": { "type": "Point", "coordinates": [ -90.41404, 37.779206 ] } },
{ "type": "Feature", "properties": { "storenum": "38", "OPENDATE": "12\/9\/71", "date_super": "3\/17\/04", "conversion": "1", "st": "40", "county": "89", "STREETADDR": "1907 SE WASHINGTON ST.", "STRCITY": "Idabel", "STRSTATE": "OK", "ZIPCODE": "74745", "type_store": "Supercenter", "LAT": 33.883578, "LON": -94.83154, "MONTH": "12", "DAY": "9", "YEAR": "1971" }, "geometry": { "type": "Point", "coordinates": [ -94.83154, 33.883578 ] } },
{ "type": "Feature", "properties": { "storenum": "40", "OPENDATE": "11\/1\/71", "date_super": "3\/1\/95", "conversion": "1", "st": "29", "county": "175", "STREETADDR": "1301 HWY 24 EAST", "STRCITY": "Moberly", "STRSTATE": "MO", "ZIPCODE": "65270", "type_store": "Supercenter", "LAT": 39.420353, "LON": -92.4344, "MONTH": "11", "DAY": "1", "YEAR": "1971" }, "geometry": { "type": "Point", "coordinates": [ -92.4344, 39.420353 ] } },
{ "type": "Feature", "properties": { "storenum": "28", "OPENDATE": "5\/1\/71", "date_super": "3\/1\/02", "conversion": "1", "st": "40", "county": "115", "STREETADDR": "2415 N.W. MAIN ST", "STRCITY": "Miami", "STRSTATE": "OK", "ZIPCODE": "74354", "type_store": "Supercenter", "LAT": 36.880746, "LON": -94.87142, "MONTH": "5", "DAY": "1", "YEAR": "1971" }, "geometry": { "type": "Point", "coordinates": [ -94.87142, 36.880746 ] } },
{ "type": "Feature", "properties": { "storenum": "39", "OPENDATE": "3\/1\/72", "date_super": "", "conversion": "", "st": "20", "county": "11", "STREETADDR": "2400 SOUTH MAIN", "STRCITY": "Fort Scott", "STRSTATE": "KS", "ZIPCODE": "66701", "type_store": "Wal-Mart", "LAT": 37.823295, "LON": -94.73389, "MONTH": "3", "DAY": "1", "YEAR": "1972" }, "geometry": { "type": "Point", "coordinates": [ -94.73389, 37.823295 ] } },
{ "type": "Feature", "properties": { "storenum": "62", "OPENDATE": "11\/1\/72", "date_super": "3\/1\/99", "conversion": "1", "st": "5", "county": "93", "STREETADDR": "3700 EAST HWY 18", "STRCITY": "Blytheville", "STRSTATE": "AR", "ZIPCODE": "72315", "type_store": "Supercenter", "LAT": 35.925991, "LON": -89.91767, "MONTH": "11", "DAY": "1", "YEAR": "1972" }, "geometry": { "type": "Point", "coordinates": [ -89.91767, 35.925991 ] } },
{ "type": "Feature", "properties": { "storenum": "43", "OPENDATE": "5\/1\/72", "date_super": "3\/1\/00", "conversion": "1", "st": "20", "county": "61", "STREETADDR": "521 EAST CHESTNUT ST", "STRCITY": "Junction City", "STRSTATE": "KS", "ZIPCODE": "66441", "type_store": "Supercenter", "LAT": 39.01585, "LON": -96.83653, "MONTH": "5", "DAY": "1", "YEAR": "1972" }, "geometry": { "type": "Point", "coordinates": [ -96.83653, 39.01585 ] } },
{ "type": "Feature", "properties": { "storenum": "44", "OPENDATE": "2\/1\/72", "date_super": "", "conversion": "", "st": "29", "county": "131", "STREETADDR": "1802 SOUTH BUSINESS HWY 54", "STRCITY": "Eldon", "STRSTATE": "MO", "ZIPCODE": "65026", "type_store": "Wal-Mart", "LAT": 38.311355, "LON": -92.58395, "MONTH": "2", "DAY": "1", "YEAR": "1972" }, "geometry": { "type": "Point", "coordinates": [ -92.58395, 38.311355 ] } },
{ "type": "Feature", "properties": { "storenum": "45", "OPENDATE": "8\/1\/72", "date_super": "3\/1\/94", "conversion": "1", "st": "5", "county": "31", "STREETADDR": "1815 EAST HIGHLAND DRIVE", "STRCITY": "Jonesboro", "STRSTATE": "AR", "ZIPCODE": "72401", "type_store": "Supercenter", "LAT": 35.844795, "LON": -90.68443, "MONTH": "8", "DAY": "1", "YEAR": "1972" }, "geometry": { "type": "Point", "coordinates": [ -90.68443, 35.844795 ] } },
{ "type": "Feature", "properties": { "storenum": "5", "OPENDATE": "5\/1\/72", "date_super": "3\/1\/94", "conversion": "1", "st": "5", "county": "45", "STREETADDR": "1155 HWY 65 NORTH", "STRCITY": "Conway", "STRSTATE": "AR", "ZIPCODE": "72032", "type_store": "Supercenter", "LAT": 35.075467, "LON": -92.43401, "MONTH": "5", "DAY": "1", "YEAR": "1972" }, "geometry": { "type": "Point", "coordinates": [ -92.43401, 35.075467 ] } },
{ "type": "Feature", "properties": { "storenum": "46", "OPENDATE": "8\/1\/72", "date_super": "3\/1\/99", "conversion": "1", "st": "29", "county": "167", "STREETADDR": "2451 S. SPRINGFIELD", "STRCITY": "Bolivar", "STRSTATE": "MO", "ZIPCODE": "65613", "type_store": "Supercenter", "LAT": 37.616822, "LON": -93.40072, "MONTH": "8", "DAY": "1", "YEAR": "1972" }, "geometry": { "type": "Point", "coordinates": [ -93.40072, 37.616822 ] } },
{ "type": "Feature", "properties": { "storenum": "55", "OPENDATE": "10\/1\/72", "date_super": "", "conversion": "", "st": "5", "county": "83", "STREETADDR": "1555 EAST MAIN", "STRCITY": "Booneville", "STRSTATE": "AR", "ZIPCODE": "72927", "type_store": "Wal-Mart", "LAT": 35.105966, "LON": -93.97531, "MONTH": "10", "DAY": "1", "YEAR": "1972" }, "geometry": { "type": "Point", "coordinates": [ -93.97531, 35.105966 ] } },
{ "type": "Feature", "properties": { "storenum": "61", "OPENDATE": "11\/1\/72", "date_super": "3\/1\/93", "conversion": "1", "st": "29", "county": "101", "STREETADDR": "301 E. COOPER AVENUE", "STRCITY": "Warrensburg", "STRSTATE": "MO", "ZIPCODE": "64093", "type_store": "Supercenter", "LAT": 38.772117, "LON": -93.73519, "MONTH": "11", "DAY": "1", "YEAR": "1972" }, "geometry": { "type": "Point", "coordinates": [ -93.73519, 38.772117 ] } },
{ "type": "Feature", "properties": { "storenum": "47", "OPENDATE": "7\/1\/72", "date_super": "3\/14\/01", "conversion": "1", "st": "40", "county": "135", "STREETADDR": "1101 WEST RUTH AVE", "STRCITY": "Sallisaw", "STRSTATE": "OK", "ZIPCODE": "74955", "type_store": "Supercenter", "LAT": 35.467031, "LON": -94.78647, "MONTH": "7", "DAY": "1", "YEAR": "1972" }, "geometry": { "type": "Point", "coordinates": [ -94.78647, 35.467031 ] } },
{ "type": "Feature", "properties": { "storenum": "48", "OPENDATE": "11\/1\/72", "date_super": "3\/1\/99", "conversion": "1", "st": "29", "county": "9", "STREETADDR": "885 HIGHWAY 60", "STRCITY": "Monett", "STRSTATE": "MO", "ZIPCODE": "65708", "type_store": "Supercenter", "LAT": 36.91816, "LON": -93.91488, "MONTH": "11", "DAY": "1", "YEAR": "1972" }, "geometry": { "type": "Point", "coordinates": [ -93.91488, 36.91816 ] } },
{ "type": "Feature", "properties": { "storenum": "49", "OPENDATE": "10\/1\/72", "date_super": "3\/1\/02", "conversion": "1", "st": "40", "county": "23", "STREETADDR": "1911 E.JACKSON ST.", "STRCITY": "Hugo", "STRSTATE": "OK", "ZIPCODE": "74743", "type_store": "Supercenter", "LAT": 34.010943, "LON": -95.51651, "MONTH": "10", "DAY": "1", "YEAR": "1972" }, "geometry": { "type": "Point", "coordinates": [ -95.51651, 34.010943 ] } },
{ "type": "Feature", "properties": { "storenum": "59", "OPENDATE": "5\/1\/72", "date_super": "3\/1\/96", "conversion": "1", "st": "29", "county": "97", "STREETADDR": "1501 SOUTH RANGELINE ROAD", "STRCITY": "Joplin", "STRSTATE": "MO", "ZIPCODE": "64804", "type_store": "Supercenter", "LAT": 37.047161, "LON": -94.51124, "MONTH": "5", "DAY": "1", "YEAR": "1972" }, "geometry": { "type": "Point", "coordinates": [ -94.51124, 37.047161 ] } },
{ "type": "Feature", "properties": { "storenum": "57", "OPENDATE": "10\/1\/72", "date_super": "", "conversion": "", "st": "5", "county": "75", "STREETADDR": "1600 WEST MAIN", "STRCITY": "Walnut Ridge", "STRSTATE": "AR", "ZIPCODE": "72476", "type_store": "Wal-Mart", "LAT": 36.068015, "LON": -90.94429, "MONTH": "10", "DAY": "1", "YEAR": "1972" }, "geometry": { "type": "Point", "coordinates": [ -90.94429, 36.068015 ] } },
{ "type": "Feature", "properties": { "storenum": "52", "OPENDATE": "7\/1\/72", "date_super": "3\/1\/00", "conversion": "1", "st": "5", "county": "51", "STREETADDR": "1601 ALBERT PIKE BLV", "STRCITY": "Hot Springs", "STRSTATE": "AR", "ZIPCODE": "71913", "type_store": "Supercenter", "LAT": 34.47056, "LON": -93.08805, "MONTH": "7", "DAY": "1", "YEAR": "1972" }, "geometry": { "type": "Point", "coordinates": [ -93.08805, 34.47056 ] } },
{ "type": "Feature", "properties": { "storenum": "54", "OPENDATE": "6\/1\/72", "date_super": "3\/1\/92", "conversion": "1", "st": "5", "county": "143", "STREETADDR": "2004 SOUTH PLEASANT", "STRCITY": "Springdale", "STRSTATE": "AR", "ZIPCODE": "72764", "type_store": "Supercenter", "LAT": 36.182407, "LON": -94.1082, "MONTH": "6", "DAY": "1", "YEAR": "1972" }, "geometry": { "type": "Point", "coordinates": [ -94.1082, 36.182407 ] } },
{ "type": "Feature", "properties": { "storenum": "41", "OPENDATE": "5\/1\/72", "date_super": "3\/1\/94", "conversion": "1", "st": "40", "county": "147", "STREETADDR": "4000 GREEN COUNTRY RD", "STRCITY": "Bartlesville", "STRSTATE": "OK", "ZIPCODE": "74006", "type_store": "Supercenter", "LAT": 36.733398, "LON": -95.92404, "MONTH": "5", "DAY": "1", "YEAR": "1972" }, "geometry": { "type": "Point", "coordinates": [ -95.92404, 36.733398 ] } },
{ "type": "Feature", "properties": { "storenum": "74", "OPENDATE": "11\/1\/73", "date_super": "", "conversion": "", "st": "5", "county": "93", "STREETADDR": "1051 WEST KEISER AVENUE", "STRCITY": "Osceola", "STRSTATE": "AR", "ZIPCODE": "72370", "type_store": "Wal-Mart", "LAT": 35.696385, "LON": -90.02631, "MONTH": "11", "DAY": "1", "YEAR": "1973" }, "geometry": { "type": "Point", "coordinates": [ -90.02631, 35.696385 ] } },
{ "type": "Feature", "properties": { "storenum": "42", "OPENDATE": "2\/1\/73", "date_super": "", "conversion": "", "st": "20", "county": "125", "STREETADDR": "1705 WEST 11TH STREET", "STRCITY": "Coffeyville", "STRSTATE": "KS", "ZIPCODE": "67337", "type_store": "Wal-Mart", "LAT": 37.041838, "LON": -95.61814, "MONTH": "2", "DAY": "1", "YEAR": "1973" }, "geometry": { "type": "Point", "coordinates": [ -95.61814, 37.041838 ] } },
{ "type": "Feature", "properties": { "storenum": "50", "OPENDATE": "9\/1\/73", "date_super": "1\/22\/03", "conversion": "1", "st": "40", "county": "35", "STREETADDR": "268 SO. 7TH ST.", "STRCITY": "Vinita", "STRSTATE": "OK", "ZIPCODE": "74301", "type_store": "Supercenter", "LAT": 36.631673, "LON": -95.17303, "MONTH": "9", "DAY": "1", "YEAR": "1973" }, "geometry": { "type": "Point", "coordinates": [ -95.17303, 36.631673 ] } },
{ "type": "Feature", "properties": { "storenum": "51", "OPENDATE": "5\/1\/73", "date_super": "3\/1\/98", "conversion": "1", "st": "29", "county": "27", "STREETADDR": "1701 NORTH BLUFF STREET", "STRCITY": "Fulton", "STRSTATE": "MO", "ZIPCODE": "65251", "type_store": "Supercenter", "LAT": 38.852436, "LON": -91.95808, "MONTH": "5", "DAY": "1", "YEAR": "1973" }, "geometry": { "type": "Point", "coordinates": [ -91.95808, 38.852436 ] } },
{ "type": "Feature", "properties": { "storenum": "56", "OPENDATE": "8\/1\/73", "date_super": "3\/17\/04", "conversion": "1", "st": "29", "county": "67", "STREETADDR": "1309 NW 12TH AVE", "STRCITY": "Ava", "STRSTATE": "MO", "ZIPCODE": "65608", "type_store": "Supercenter", "LAT": 36.921199, "LON": -92.66205, "MONTH": "8", "DAY": "1", "YEAR": "1973" }, "geometry": { "type": "Point", "coordinates": [ -92.66205, 36.921199 ] } },
{ "type": "Feature", "properties": { "storenum": "58", "OPENDATE": "5\/1\/73", "date_super": "10\/26\/05", "conversion": "1", "st": "5", "county": "115", "STREETADDR": "2409 EAST MAIN STREET", "STRCITY": "Russellville", "STRSTATE": "AR", "ZIPCODE": "72802", "type_store": "Supercenter", "LAT": 35.308848, "LON": -93.10909, "MONTH": "5", "DAY": "1", "YEAR": "1973" }, "geometry": { "type": "Point", "coordinates": [ -93.10909, 35.308848 ] } },
{ "type": "Feature", "properties": { "storenum": "63", "OPENDATE": "9\/1\/73", "date_super": "3\/1\/88", "conversion": "1", "st": "40", "county": "145", "STREETADDR": "410 SOUTH DEWEY", "STRCITY": "Wagoner", "STRSTATE": "OK", "ZIPCODE": "74467", "type_store": "Supercenter", "LAT": 35.961019, "LON": -95.3611, "MONTH": "9", "DAY": "1", "YEAR": "1973" }, "geometry": { "type": "Point", "coordinates": [ -95.3611, 35.961019 ] } },
{ "type": "Feature", "properties": { "storenum": "64", "OPENDATE": "2\/1\/73", "date_super": "", "conversion": "", "st": "47", "county": "75", "STREETADDR": "100 SOUTH DUPREE", "STRCITY": "Brownsville", "STRSTATE": "TN", "ZIPCODE": "38012", "type_store": "Wal-Mart", "LAT": 35.590558, "LON": -89.2609, "MONTH": "2", "DAY": "1", "YEAR": "1973" }, "geometry": { "type": "Point", "coordinates": [ -89.2609, 35.590558 ] } },
{ "type": "Feature", "properties": { "storenum": "65", "OPENDATE": "7\/3\/73", "date_super": "3\/1\/94", "conversion": "1", "st": "29", "county": "71", "STREETADDR": "350 PARKRIDGE ROAD", "STRCITY": "Sullivan", "STRSTATE": "MO", "ZIPCODE": "63080", "type_store": "Supercenter", "LAT": 38.200244, "LON": -91.14089, "MONTH": "7", "DAY": "3", "YEAR": "1973" }, "geometry": { "type": "Point", "coordinates": [ -91.14089, 38.200244 ] } },
{ "type": "Feature", "properties": { "storenum": "66", "OPENDATE": "8\/1\/73", "date_super": "7\/17\/02", "conversion": "1", "st": "5", "county": "71", "STREETADDR": "1230 MARKET STREET", "STRCITY": "Clarksville", "STRSTATE": "AR", "ZIPCODE": "72830", "type_store": "Supercenter", "LAT": 35.490105, "LON": -93.4851, "MONTH": "8", "DAY": "1", "YEAR": "1973" }, "geometry": { "type": "Point", "coordinates": [ -93.4851, 35.490105 ] } },
{ "type": "Feature", "properties": { "storenum": "67", "OPENDATE": "7\/1\/73", "date_super": "3\/1\/95", "conversion": "1", "st": "5", "county": "113", "STREETADDR": "600 HWY 71 NORTH", "STRCITY": "Mena", "STRSTATE": "AR", "ZIPCODE": "71953", "type_store": "Supercenter", "LAT": 34.588479, "LON": -94.21567, "MONTH": "7", "DAY": "1", "YEAR": "1973" }, "geometry": { "type": "Point", "coordinates": [ -94.21567, 34.588479 ] } },
{ "type": "Feature", "properties": { "storenum": "68", "OPENDATE": "8\/1\/73", "date_super": "8\/20\/03", "conversion": "1", "st": "5", "county": "37", "STREETADDR": "800 HWY 64 EAST", "STRCITY": "Wynne", "STRSTATE": "AR", "ZIPCODE": "72396", "type_store": "Supercenter", "LAT": 35.229779, "LON": -90.83237, "MONTH": "8", "DAY": "1", "YEAR": "1973" }, "geometry": { "type": "Point", "coordinates": [ -90.83237, 35.229779 ] } },
{ "type": "Feature", "properties": { "storenum": "69", "OPENDATE": "12\/1\/73", "date_super": "3\/1\/93", "conversion": "1", "st": "29", "county": "99", "STREETADDR": "650 SOUTH TRUMAN BLVD", "STRCITY": "Festus", "STRSTATE": "MO", "ZIPCODE": "63028", "type_store": "Supercenter", "LAT": 38.187767, "LON": -90.4077, "MONTH": "12", "DAY": "1", "YEAR": "1973" }, "geometry": { "type": "Point", "coordinates": [ -90.4077, 38.187767 ] } },
{ "type": "Feature", "properties": { "storenum": "71", "OPENDATE": "11\/1\/73", "date_super": "3\/1\/94", "conversion": "1", "st": "5", "county": "121", "STREETADDR": "1415 HWY 67 SOUTH", "STRCITY": "Pocahontas", "STRSTATE": "AR", "ZIPCODE": "72455", "type_store": "Supercenter", "LAT": 36.304912, "LON": -91.0141, "MONTH": "11", "DAY": "1", "YEAR": "1973" }, "geometry": { "type": "Point", "coordinates": [ -91.0141, 36.304912 ] } },
{ "type": "Feature", "properties": { "storenum": "76", "OPENDATE": "11\/1\/73", "date_super": "3\/1\/93", "conversion": "1", "st": "5", "county": "15", "STREETADDR": "1000 WEST TRIMBLE", "STRCITY": "Berryville", "STRSTATE": "AR", "ZIPCODE": "72616", "type_store": "Supercenter", "LAT": 36.350821, "LON": -93.56324, "MONTH": "11", "DAY": "1", "YEAR": "1973" }, "geometry": { "type": "Point", "coordinates": [ -93.56324, 36.350821 ] } },
{ "type": "Feature", "properties": { "storenum": "78", "OPENDATE": "9\/1\/73", "date_super": "", "conversion": "", "st": "29", "county": "225", "STREETADDR": "1331 SPUR DR\/ BUS. RT US HWY66", "STRCITY": "Marshfield", "STRSTATE": "MO", "ZIPCODE": "65706", "type_store": "Wal-Mart", "LAT": 37.330958, "LON": -92.90929, "MONTH": "9", "DAY": "1", "YEAR": "1973" }, "geometry": { "type": "Point", "coordinates": [ -92.90929, 37.330958 ] } },
{ "type": "Feature", "properties": { "storenum": "80", "OPENDATE": "6\/1\/73", "date_super": "", "conversion": "", "st": "29", "county": "19", "STREETADDR": "401 N STADIUM BL\/BISCAYNE MALL", "STRCITY": "Columbia", "STRSTATE": "MO", "ZIPCODE": "65201", "type_store": "Wal-Mart", "LAT": 38.926838, "LON": -92.29003, "MONTH": "6", "DAY": "1", "YEAR": "1973" }, "geometry": { "type": "Point", "coordinates": [ -92.29003, 38.926838 ] } },
{ "type": "Feature", "properties": { "storenum": "81", "OPENDATE": "6\/1\/73", "date_super": "10\/26\/05", "conversion": "1", "st": "40", "county": "1", "STREETADDR": "ROUTE 6 BOX 1895", "STRCITY": "Stilwell", "STRSTATE": "OK", "ZIPCODE": "74960", "type_store": "Supercenter", "LAT": 35.815628, "LON": -94.65023, "MONTH": "6", "DAY": "1", "YEAR": "1973" }, "geometry": { "type": "Point", "coordinates": [ -94.65023, 35.815628 ] } },
{ "type": "Feature", "properties": { "storenum": "86", "OPENDATE": "12\/1\/73", "date_super": "3\/1\/94", "conversion": "1", "st": "29", "county": "77", "STREETADDR": "2825 N KANSAS EXPRESSWAY", "STRCITY": "Springfield", "STRSTATE": "MO", "ZIPCODE": "65803", "type_store": "Supercenter", "LAT": 37.257053, "LON": -93.29015, "MONTH": "12", "DAY": "1", "YEAR": "1973" }, "geometry": { "type": "Point", "coordinates": [ -93.29015, 37.257053 ] } },
{ "type": "Feature", "properties": { "storenum": "73", "OPENDATE": "10\/1\/74", "date_super": "3\/1\/99", "conversion": "1", "st": "40", "county": "37", "STREETADDR": "1002 WEST TAFT", "STRCITY": "Sapulpa", "STRSTATE": "OK", "ZIPCODE": "74066", "type_store": "Supercenter", "LAT": 35.996582, "LON": -96.1194, "MONTH": "10", "DAY": "1", "YEAR": "1974" }, "geometry": { "type": "Point", "coordinates": [ -96.1194, 35.996582 ] } },
{ "type": "Feature", "properties": { "storenum": "100", "OPENDATE": "10\/1\/74", "date_super": "3\/1\/92", "conversion": "1", "st": "5", "county": "7", "STREETADDR": "406 SOUTH WALTON BLVD", "STRCITY": "Bentonville", "STRSTATE": "AR", "ZIPCODE": "72712", "type_store": "Supercenter", "LAT": 36.362525, "LON": -94.23308, "MONTH": "10", "DAY": "1", "YEAR": "1974" }, "geometry": { "type": "Point", "coordinates": [ -94.23308, 36.362525 ] } },
{ "type": "Feature", "properties": { "storenum": "72", "OPENDATE": "1\/1\/74", "date_super": "3\/1\/94", "conversion": "1", "st": "20", "county": "37", "STREETADDR": "2710 N BROADWAY", "STRCITY": "Pittsburg", "STRSTATE": "KS", "ZIPCODE": "66762", "type_store": "Supercenter", "LAT": 37.408511, "LON": -94.70414, "MONTH": "1", "DAY": "1", "YEAR": "1974" }, "geometry": { "type": "Point", "coordinates": [ -94.70414, 37.408511 ] } },
{ "type": "Feature", "properties": { "storenum": "70", "OPENDATE": "7\/1\/74", "date_super": "3\/1\/97", "conversion": "1", "st": "5", "county": "35", "STREETADDR": "798 WEST SERVICE ROAD", "STRCITY": "West Memphis", "STRSTATE": "AR", "ZIPCODE": "72301", "type_store": "Supercenter", "LAT": 35.150009, "LON": -90.17636, "MONTH": "7", "DAY": "1", "YEAR": "1974" }, "geometry": { "type": "Point", "coordinates": [ -90.17636, 35.150009 ] } },
{ "type": "Feature", "properties": { "storenum": "107", "OPENDATE": "10\/1\/74", "date_super": "", "conversion": "", "st": "47", "county": "183", "STREETADDR": "850 WAL-MART DRIVE", "STRCITY": "Martin", "STRSTATE": "TN", "ZIPCODE": "38237", "type_store": "Wal-Mart", "LAT": 36.353928, "LON": -88.84191, "MONTH": "10", "DAY": "1", "YEAR": "1974" }, "geometry": { "type": "Point", "coordinates": [ -88.84191, 36.353928 ] } },
{ "type": "Feature", "properties": { "storenum": "79", "OPENDATE": "4\/1\/74", "date_super": "3\/1\/99", "conversion": "1", "st": "29", "county": "97", "STREETADDR": "2623 WEST 7TH STREET", "STRCITY": "Joplin", "STRSTATE": "MO", "ZIPCODE": "64801", "type_store": "Supercenter", "LAT": 37.09416, "LON": -94.50169, "MONTH": "4", "DAY": "1", "YEAR": "1974" }, "geometry": { "type": "Point", "coordinates": [ -94.50169, 37.09416 ] } },
{ "type": "Feature", "properties": { "storenum": "106", "OPENDATE": "8\/1\/74", "date_super": "10\/20\/04", "conversion": "1", "st": "21", "county": "75", "STREETADDR": "1405 MIDDLE ROAD", "STRCITY": "Fulton", "STRSTATE": "KY", "ZIPCODE": "42041", "type_store": "Supercenter", "LAT": 36.532059, "LON": -88.89132, "MONTH": "8", "DAY": "1", "YEAR": "1974" }, "geometry": { "type": "Point", "coordinates": [ -88.89132, 36.532059 ] } },
{ "type": "Feature", "properties": { "storenum": "105", "OPENDATE": "8\/1\/74", "date_super": "3\/1\/94", "conversion": "1", "st": "28", "county": "3", "STREETADDR": "2301 HARPER ROAD", "STRCITY": "Corinth", "STRSTATE": "MS", "ZIPCODE": "38834", "type_store": "Supercenter", "LAT": 34.928325, "LON": -88.52856, "MONTH": "8", "DAY": "1", "YEAR": "1974" }, "geometry": { "type": "Point", "coordinates": [ -88.52856, 34.928325 ] } },
{ "type": "Feature", "properties": { "storenum": "82", "OPENDATE": "4\/1\/74", "date_super": "3\/1\/98", "conversion": "1", "st": "29", "county": "157", "STREETADDR": "1750 S. PERRYVILLE", "STRCITY": "Perryville", "STRSTATE": "MO", "ZIPCODE": "63775", "type_store": "Supercenter", "LAT": 37.716811, "LON": -89.87601, "MONTH": "4", "DAY": "1", "YEAR": "1974" }, "geometry": { "type": "Point", "coordinates": [ -89.87601, 37.716811 ] } },
{ "type": "Feature", "properties": { "storenum": "83", "OPENDATE": "8\/1\/74", "date_super": "8\/20\/03", "conversion": "1", "st": "5", "county": "27", "STREETADDR": "60 79-BYPASS NORTH", "STRCITY": "Magnolia", "STRSTATE": "AR", "ZIPCODE": "71753", "type_store": "Supercenter", "LAT": 33.249608, "LON": -93.20427, "MONTH": "8", "DAY": "1", "YEAR": "1974" }, "geometry": { "type": "Point", "coordinates": [ -93.20427, 33.249608 ] } },
{ "type": "Feature", "properties": { "storenum": "84", "OPENDATE": "5\/1\/74", "date_super": "", "conversion": "", "st": "5", "county": "95", "STREETADDR": "PINECREST PLAZA SHOPPING CTR", "STRCITY": "Brinkley", "STRSTATE": "AR", "ZIPCODE": "72021", "type_store": "Wal-Mart", "LAT": 34.867846, "LON": -91.19271, "MONTH": "5", "DAY": "1", "YEAR": "1974" }, "geometry": { "type": "Point", "coordinates": [ -91.19271, 34.867846 ] } },
{ "type": "Feature", "properties": { "storenum": "85", "OPENDATE": "4\/1\/74", "date_super": "3\/1\/96", "conversion": "1", "st": "5", "county": "125", "STREETADDR": "17309 I-30", "STRCITY": "Benton", "STRSTATE": "AR", "ZIPCODE": "72015", "type_store": "Supercenter", "LAT": 34.564734, "LON": -92.59562, "MONTH": "4", "DAY": "1", "YEAR": "1974" }, "geometry": { "type": "Point", "coordinates": [ -92.59562, 34.564734 ] } },
{ "type": "Feature", "properties": { "storenum": "104", "OPENDATE": "7\/1\/74", "date_super": "", "conversion": "", "st": "47", "county": "53", "STREETADDR": "15427 SO. FIRST STREET", "STRCITY": "Milan", "STRSTATE": "TN", "ZIPCODE": "38358", "type_store": "Wal-Mart", "LAT": 35.916722, "LON": -88.76628, "MONTH": "7", "DAY": "1", "YEAR": "1974" }, "geometry": { "type": "Point", "coordinates": [ -88.76628, 35.916722 ] } },
{ "type": "Feature", "properties": { "storenum": "87", "OPENDATE": "7\/1\/74", "date_super": "3\/1\/99", "conversion": "1", "st": "22", "county": "119", "STREETADDR": "1379 HOMER ROAD", "STRCITY": "Minden", "STRSTATE": "LA", "ZIPCODE": "71055", "type_store": "Supercenter", "LAT": 32.631009, "LON": -93.28751, "MONTH": "7", "DAY": "1", "YEAR": "1974" }, "geometry": { "type": "Point", "coordinates": [ -93.28751, 32.631009 ] } },
{ "type": "Feature", "properties": { "storenum": "88", "OPENDATE": "2\/1\/74", "date_super": "3\/1\/94", "conversion": "1", "st": "29", "county": "229", "STREETADDR": "2100 NORTH MAIN", "STRCITY": "Mt. Grove", "STRSTATE": "MO", "ZIPCODE": "65711", "type_store": "Supercenter", "LAT": 37.176376, "LON": -92.27609, "MONTH": "2", "DAY": "1", "YEAR": "1974" }, "geometry": { "type": "Point", "coordinates": [ -92.27609, 37.176376 ] } },
{ "type": "Feature", "properties": { "storenum": "89", "OPENDATE": "2\/1\/74", "date_super": "4\/13\/05", "conversion": "1", "st": "29", "county": "29", "STREETADDR": "94 CECIL STREET", "STRCITY": "Camdenton", "STRSTATE": "MO", "ZIPCODE": "65020", "type_store": "Supercenter", "LAT": 38.032648, "LON": -92.78269, "MONTH": "2", "DAY": "1", "YEAR": "1974" }, "geometry": { "type": "Point", "coordinates": [ -92.78269, 38.032648 ] } },
{ "type": "Feature", "properties": { "storenum": "90", "OPENDATE": "4\/1\/74", "date_super": "3\/1\/95", "conversion": "1", "st": "40", "county": "41", "STREETADDR": "2115 S MAIN ST", "STRCITY": "Grove", "STRSTATE": "OK", "ZIPCODE": "74344", "type_store": "Supercenter", "LAT": 36.599689, "LON": -94.76673, "MONTH": "4", "DAY": "1", "YEAR": "1974" }, "geometry": { "type": "Point", "coordinates": [ -94.76673, 36.599689 ] } },
{ "type": "Feature", "properties": { "storenum": "91", "OPENDATE": "9\/1\/74", "date_super": "3\/1\/94", "conversion": "1", "st": "5", "county": "123", "STREETADDR": "205 DEADRICK ROAD", "STRCITY": "Forrest City", "STRSTATE": "AR", "ZIPCODE": "72335", "type_store": "Supercenter", "LAT": 35.010683, "LON": -90.78048, "MONTH": "9", "DAY": "1", "YEAR": "1974" }, "geometry": { "type": "Point", "coordinates": [ -90.78048, 35.010683 ] } },
{ "type": "Feature", "properties": { "storenum": "92", "OPENDATE": "4\/1\/74", "date_super": "", "conversion": "", "st": "29", "county": "109", "STREETADDR": "3020 SOUTH ELLIOTT", "STRCITY": "Aurora", "STRSTATE": "MO", "ZIPCODE": "65605", "type_store": "Wal-Mart", "LAT": 36.918018, "LON": -93.71063, "MONTH": "4", "DAY": "1", "YEAR": "1974" }, "geometry": { "type": "Point", "coordinates": [ -93.71063, 36.918018 ] } },
{ "type": "Feature", "properties": { "storenum": "93", "OPENDATE": "10\/1\/74", "date_super": "", "conversion": "", "st": "47", "county": "167", "STREETADDR": "975 US HIGHWAY 51 NORTH", "STRCITY": "Covington", "STRSTATE": "TN", "ZIPCODE": "38019", "type_store": "Wal-Mart", "LAT": 35.560622, "LON": -89.64201, "MONTH": "10", "DAY": "1", "YEAR": "1974" }, "geometry": { "type": "Point", "coordinates": [ -89.64201, 35.560622 ] } },
{ "type": "Feature", "properties": { "storenum": "94", "OPENDATE": "7\/1\/74", "date_super": "3\/1\/97", "conversion": "1", "st": "47", "county": "157", "STREETADDR": "8445 HWY 51 NORTH", "STRCITY": "Millington", "STRSTATE": "TN", "ZIPCODE": "38053", "type_store": "Supercenter", "LAT": 35.347965, "LON": -89.90668, "MONTH": "7", "DAY": "1", "YEAR": "1974" }, "geometry": { "type": "Point", "coordinates": [ -89.90668, 35.347965 ] } },
{ "type": "Feature", "properties": { "storenum": "95", "OPENDATE": "10\/1\/74", "date_super": "5\/21\/03", "conversion": "1", "st": "29", "county": "187", "STREETADDR": "407 NO. STATE ST", "STRCITY": "Desloge", "STRSTATE": "MO", "ZIPCODE": "63601", "type_store": "Supercenter", "LAT": 37.844197, "LON": -90.53, "MONTH": "10", "DAY": "1", "YEAR": "1974" }, "geometry": { "type": "Point", "coordinates": [ -90.53, 37.844197 ] } },
{ "type": "Feature", "properties": { "storenum": "96", "OPENDATE": "10\/1\/74", "date_super": "3\/1\/94", "conversion": "1", "st": "29", "county": "37", "STREETADDR": "1700 NORTH 291 HIGHWAY", "STRCITY": "Harrisonville", "STRSTATE": "MO", "ZIPCODE": "64701", "type_store": "Supercenter", "LAT": 38.641509, "LON": -94.34126, "MONTH": "10", "DAY": "1", "YEAR": "1974" }, "geometry": { "type": "Point", "coordinates": [ -94.34126, 38.641509 ] } },
{ "type": "Feature", "properties": { "storenum": "97", "OPENDATE": "11\/1\/74", "date_super": "3\/1\/94", "conversion": "1", "st": "47", "county": "97", "STREETADDR": "628 HWY 51 BYPASS", "STRCITY": "Ripley", "STRSTATE": "TN", "ZIPCODE": "38063", "type_store": "Supercenter", "LAT": 35.637993, "LON": -89.86859, "MONTH": "11", "DAY": "1", "YEAR": "1974" }, "geometry": { "type": "Point", "coordinates": [ -89.86859, 35.637993 ] } },
{ "type": "Feature", "properties": { "storenum": "102", "OPENDATE": "9\/1\/74", "date_super": "3\/1\/95", "conversion": "1", "st": "5", "county": "1", "STREETADDR": "406 E 22ND STREET", "STRCITY": "Stuttgart", "STRSTATE": "AR", "ZIPCODE": "72160", "type_store": "Supercenter", "LAT": 34.479852, "LON": -91.53854, "MONTH": "9", "DAY": "1", "YEAR": "1974" }, "geometry": { "type": "Point", "coordinates": [ -91.53854, 34.479852 ] } },
{ "type": "Feature", "properties": { "storenum": "129", "OPENDATE": "7\/1\/75", "date_super": "3\/1\/94", "conversion": "1", "st": "40", "county": "19", "STREETADDR": "1715 NORTH COMMERCE STREET", "STRCITY": "Ardmore", "STRSTATE": "OK", "ZIPCODE": "73401", "type_store": "Supercenter", "LAT": 34.184742, "LON": -97.12655, "MONTH": "7", "DAY": "1", "YEAR": "1975" }, "geometry": { "type": "Point", "coordinates": [ -97.12655, 34.184742 ] } },
{ "type": "Feature", "properties": { "storenum": "98", "OPENDATE": "2\/1\/75", "date_super": "", "conversion": "", "st": "22", "county": "67", "STREETADDR": "2030 EAST MADISON", "STRCITY": "Bastrop", "STRSTATE": "LA", "ZIPCODE": "71220", "type_store": "Wal-Mart", "LAT": 32.814969, "LON": -91.90678, "MONTH": "2", "DAY": "1", "YEAR": "1975" }, "geometry": { "type": "Point", "coordinates": [ -91.90678, 32.814969 ] } },
{ "type": "Feature", "properties": { "storenum": "103", "OPENDATE": "8\/1\/75", "date_super": "8\/25\/04", "conversion": "1", "st": "40", "county": "125", "STREETADDR": "196 SHAWNEE MALL DRIVE", "STRCITY": "Shawnee", "STRSTATE": "OK", "ZIPCODE": "74804", "type_store": "Supercenter", "LAT": 35.375188, "LON": -96.93162, "MONTH": "8", "DAY": "1", "YEAR": "1975" }, "geometry": { "type": "Point", "coordinates": [ -96.93162, 35.375188 ] } },
{ "type": "Feature", "properties": { "storenum": "108", "OPENDATE": "2\/1\/75", "date_super": "", "conversion": "", "st": "40", "county": "83", "STREETADDR": "1618 SOUTH DIVISION", "STRCITY": "Guthrie", "STRSTATE": "OK", "ZIPCODE": "73044", "type_store": "Wal-Mart", "LAT": 35.857303, "LON": -97.43176, "MONTH": "2", "DAY": "1", "YEAR": "1975" }, "geometry": { "type": "Point", "coordinates": [ -97.43176, 35.857303 ] } },
{ "type": "Feature", "properties": { "storenum": "109", "OPENDATE": "2\/1\/75", "date_super": "3\/1\/95", "conversion": "1", "st": "29", "county": "63", "STREETADDR": "2000 NORTH WALNUT", "STRCITY": "Cameron", "STRSTATE": "MO", "ZIPCODE": "64429", "type_store": "Supercenter", "LAT": 39.743859, "LON": -94.23378, "MONTH": "2", "DAY": "1", "YEAR": "1975" }, "geometry": { "type": "Point", "coordinates": [ -94.23378, 39.743859 ] } },
{ "type": "Feature", "properties": { "storenum": "111", "OPENDATE": "11\/1\/75", "date_super": "6\/25\/03", "conversion": "1", "st": "20", "county": "133", "STREETADDR": "2700 SOUTH SANTA FE", "STRCITY": "Chanute", "STRSTATE": "KS", "ZIPCODE": "66720", "type_store": "Supercenter", "LAT": 37.666078, "LON": -95.45681, "MONTH": "11", "DAY": "1", "YEAR": "1975" }, "geometry": { "type": "Point", "coordinates": [ -95.45681, 37.666078 ] } },
{ "type": "Feature", "properties": { "storenum": "112", "OPENDATE": "4\/1\/75", "date_super": "3\/1\/02", "conversion": "1", "st": "28", "county": "105", "STREETADDR": "1010 HWY 12 WEST", "STRCITY": "Starkville", "STRSTATE": "MS", "ZIPCODE": "39759", "type_store": "Supercenter", "LAT": 33.450215, "LON": -88.82383, "MONTH": "4", "DAY": "1", "YEAR": "1975" }, "geometry": { "type": "Point", "coordinates": [ -88.82383, 33.450215 ] } },
{ "type": "Feature", "properties": { "storenum": "113", "OPENDATE": "7\/1\/75", "date_super": "1\/27\/06", "conversion": "1", "st": "40", "county": "51", "STREETADDR": "2001 SO. 1ST ST.", "STRCITY": "Chickasha", "STRSTATE": "OK", "ZIPCODE": "73018", "type_store": "Supercenter", "LAT": 35.040526, "LON": -97.94723, "MONTH": "7", "DAY": "1", "YEAR": "1975" }, "geometry": { "type": "Point", "coordinates": [ -97.94723, 35.040526 ] } },
{ "type": "Feature", "properties": { "storenum": "114", "OPENDATE": "4\/1\/75", "date_super": "", "conversion": "", "st": "28", "county": "117", "STREETADDR": "200 WALMART CIRCLE", "STRCITY": "Booneville", "STRSTATE": "MS", "ZIPCODE": "38829", "type_store": "Wal-Mart", "LAT": 34.653448, "LON": -88.53751, "MONTH": "4", "DAY": "1", "YEAR": "1975" }, "geometry": { "type": "Point", "coordinates": [ -88.53751, 34.653448 ] } },
{ "type": "Feature", "properties": { "storenum": "116", "OPENDATE": "8\/1\/75", "date_super": "", "conversion": "", "st": "22", "county": "17", "STREETADDR": "929 SOUTH PINE STREET", "STRCITY": "Vivian", "STRSTATE": "LA", "ZIPCODE": "71082", "type_store": "Wal-Mart", "LAT": 32.849008, "LON": -93.97599, "MONTH": "8", "DAY": "1", "YEAR": "1975" }, "geometry": { "type": "Point", "coordinates": [ -93.97599, 32.849008 ] } },
{ "type": "Feature", "properties": { "storenum": "117", "OPENDATE": "6\/1\/75", "date_super": "", "conversion": "", "st": "40", "county": "89", "STREETADDR": "501 SOUTH PARK DRIVE", "STRCITY": "Broken Bow", "STRSTATE": "OK", "ZIPCODE": "74728", "type_store": "Wal-Mart", "LAT": 34.142978, "LON": -94.80269, "MONTH": "6", "DAY": "1", "YEAR": "1975" }, "geometry": { "type": "Point", "coordinates": [ -94.80269, 34.142978 ] } },
{ "type": "Feature", "properties": { "storenum": "121", "OPENDATE": "9\/1\/75", "date_super": "3\/1\/94", "conversion": "1", "st": "40", "county": "111", "STREETADDR": "1800 SOUTH WOOD DRIVE", "STRCITY": "Okmulgee", "STRSTATE": "OK", "ZIPCODE": "74447", "type_store": "Supercenter", "LAT": 35.628612, "LON": -95.9734, "MONTH": "9", "DAY": "1", "YEAR": "1975" }, "geometry": { "type": "Point", "coordinates": [ -95.9734, 35.628612 ] } },
{ "type": "Feature", "properties": { "storenum": "122", "OPENDATE": "11\/1\/75", "date_super": "3\/1\/99", "conversion": "1", "st": "29", "county": "31", "STREETADDR": "3051 EAST JACKSON BLVD.", "STRCITY": "Jackson", "STRSTATE": "MO", "ZIPCODE": "63755", "type_store": "Supercenter", "LAT": 37.413716, "LON": -89.65428, "MONTH": "11", "DAY": "1", "YEAR": "1975" }, "geometry": { "type": "Point", "coordinates": [ -89.65428, 37.413716 ] } },
{ "type": "Feature", "properties": { "storenum": "123", "OPENDATE": "6\/1\/75", "date_super": "10\/29\/03", "conversion": "1", "st": "40", "county": "133", "STREETADDR": "1500 E. WRANGLER BLVD", "STRCITY": "Seminole", "STRSTATE": "OK", "ZIPCODE": "74868", "type_store": "Supercenter", "LAT": 35.249655, "LON": -96.65915, "MONTH": "6", "DAY": "1", "YEAR": "1975" }, "geometry": { "type": "Point", "coordinates": [ -96.65915, 35.249655 ] } },
{ "type": "Feature", "properties": { "storenum": "124", "OPENDATE": "3\/1\/75", "date_super": "3\/1\/99", "conversion": "1", "st": "5", "county": "119", "STREETADDR": "8801 BASELINE ROAD", "STRCITY": "Little Rock", "STRSTATE": "AR", "ZIPCODE": "72209", "type_store": "Supercenter", "LAT": 34.674192, "LON": -92.35557, "MONTH": "3", "DAY": "1", "YEAR": "1975" }, "geometry": { "type": "Point", "coordinates": [ -92.35557, 34.674192 ] } },
{ "type": "Feature", "properties": { "storenum": "125", "OPENDATE": "4\/1\/75", "date_super": "3\/1\/99", "conversion": "1", "st": "5", "county": "131", "STREETADDR": "2425 SOUTH ZERO ST", "STRCITY": "Fort Smith", "STRSTATE": "AR", "ZIPCODE": "72901", "type_store": "Supercenter", "LAT": 35.373791, "LON": -94.41371, "MONTH": "4", "DAY": "1", "YEAR": "1975" }, "geometry": { "type": "Point", "coordinates": [ -94.41371, 35.373791 ] } },
{ "type": "Feature", "properties": { "storenum": "130", "OPENDATE": "7\/1\/75", "date_super": "8\/25\/04", "conversion": "1", "st": "40", "county": "101", "STREETADDR": "1000 WEST SHAWNEE ST", "STRCITY": "Muskogee", "STRSTATE": "OK", "ZIPCODE": "74403", "type_store": "Supercenter", "LAT": 35.719962, "LON": -95.33691, "MONTH": "7", "DAY": "1", "YEAR": "1975" }, "geometry": { "type": "Point", "coordinates": [ -95.33691, 35.719962 ] } },
{ "type": "Feature", "properties": { "storenum": "131", "OPENDATE": "11\/1\/75", "date_super": "3\/1\/90", "conversion": "1", "st": "48", "county": "449", "STREETADDR": "2311 SOUTH JEFFERSON", "STRCITY": "Mt. Pleasant", "STRSTATE": "TX", "ZIPCODE": "75455", "type_store": "Supercenter", "LAT": 33.166739, "LON": -94.9814, "MONTH": "11", "DAY": "1", "YEAR": "1975" }, "geometry": { "type": "Point", "coordinates": [ -94.9814, 33.166739 ] } },
{ "type": "Feature", "properties": { "storenum": "60", "OPENDATE": "3\/1\/75", "date_super": "3\/1\/96", "conversion": "1", "st": "29", "county": "113", "STREETADDR": "101 HWY 47 EAST", "STRCITY": "Troy", "STRSTATE": "MO", "ZIPCODE": "63379", "type_store": "Supercenter", "LAT": 38.991916, "LON": -90.98649, "MONTH": "3", "DAY": "1", "YEAR": "1975" }, "geometry": { "type": "Point", "coordinates": [ -90.98649, 38.991916 ] } },
{ "type": "Feature", "properties": { "storenum": "118", "OPENDATE": "4\/1\/76", "date_super": "3\/1\/93", "conversion": "1", "st": "28", "county": "95", "STREETADDR": "1515 US HWY 278 EAST", "STRCITY": "Amory", "STRSTATE": "MS", "ZIPCODE": "38821", "type_store": "Supercenter", "LAT": 33.988235, "LON": -88.46783, "MONTH": "4", "DAY": "1", "YEAR": "1976" }, "geometry": { "type": "Point", "coordinates": [ -88.46783, 33.988235 ] } },
{ "type": "Feature", "properties": { "storenum": "120", "OPENDATE": "3\/1\/76", "date_super": "", "conversion": "", "st": "47", "county": "53", "STREETADDR": "2716 NORTH CENTRAL AVENUE", "STRCITY": "Humboldt", "STRSTATE": "TN", "ZIPCODE": "38343", "type_store": "Wal-Mart", "LAT": 35.825299, "LON": -88.90218, "MONTH": "3", "DAY": "1", "YEAR": "1976" }, "geometry": { "type": "Point", "coordinates": [ -88.90218, 35.825299 ] } },
{ "type": "Feature", "properties": { "storenum": "136", "OPENDATE": "4\/1\/76", "date_super": "", "conversion": "", "st": "40", "county": "71", "STREETADDR": "1219 WEST DOOLIN", "STRCITY": "Blackwell", "STRSTATE": "OK", "ZIPCODE": "74631", "type_store": "Wal-Mart", "LAT": 36.800787, "LON": -97.29289, "MONTH": "4", "DAY": "1", "YEAR": "1976" }, "geometry": { "type": "Point", "coordinates": [ -97.29289, 36.800787 ] } },
{ "type": "Feature", "properties": { "storenum": "137", "OPENDATE": "10\/1\/76", "date_super": "3\/1\/94", "conversion": "1", "st": "40", "county": "119", "STREETADDR": "111 NORTH PERKINS ROAD", "STRCITY": "Stillwater", "STRSTATE": "OK", "ZIPCODE": "74075", "type_store": "Supercenter", "LAT": 36.149394, "LON": -97.05784, "MONTH": "10", "DAY": "1", "YEAR": "1976" }, "geometry": { "type": "Point", "coordinates": [ -97.05784, 36.149394 ] } },
{ "type": "Feature", "properties": { "storenum": "147", "OPENDATE": "7\/1\/76", "date_super": "3\/1\/95", "conversion": "1", "st": "48", "county": "181", "STREETADDR": "401 NORTH US HWY 75", "STRCITY": "Denison", "STRSTATE": "TX", "ZIPCODE": "75020", "type_store": "Supercenter", "LAT": 33.754053, "LON": -96.57867, "MONTH": "7", "DAY": "1", "YEAR": "1976" }, "geometry": { "type": "Point", "coordinates": [ -96.57867, 33.754053 ] } },
{ "type": "Feature", "properties": { "storenum": "139", "OPENDATE": "7\/1\/76", "date_super": "", "conversion": "", "st": "40", "county": "87", "STREETADDR": "1620 NORTH GREEN AVENUE", "STRCITY": "Purcell", "STRSTATE": "OK", "ZIPCODE": "73080", "type_store": "Wal-Mart", "LAT": 35.017656, "LON": -97.39646, "MONTH": "7", "DAY": "1", "YEAR": "1976" }, "geometry": { "type": "Point", "coordinates": [ -97.39646, 35.017656 ] } },
{ "type": "Feature", "properties": { "storenum": "150", "OPENDATE": "10\/1\/76", "date_super": "3\/1\/98", "conversion": "1", "st": "40", "county": "153", "STREETADDR": "3215 WILLIAMS AVENUE", "STRCITY": "Woodward", "STRSTATE": "OK", "ZIPCODE": "73801", "type_store": "Supercenter", "LAT": 36.433665, "LON": -99.40838, "MONTH": "10", "DAY": "1", "YEAR": "1976" }, "geometry": { "type": "Point", "coordinates": [ -99.40838, 36.433665 ] } },
{ "type": "Feature", "properties": { "storenum": "126", "OPENDATE": "3\/1\/76", "date_super": "", "conversion": "", "st": "5", "county": "119", "STREETADDR": "700 SOUTH BOWMAN BLV", "STRCITY": "Little Rock", "STRSTATE": "AR", "ZIPCODE": "72211", "type_store": "Wal-Mart", "LAT": 34.749723, "LON": -92.41345, "MONTH": "3", "DAY": "1", "YEAR": "1976" }, "geometry": { "type": "Point", "coordinates": [ -92.41345, 34.749723 ] } },
{ "type": "Feature", "properties": { "storenum": "127", "OPENDATE": "2\/1\/76", "date_super": "4\/13\/05", "conversion": "1", "st": "5", "county": "59", "STREETADDR": "1910 MARTIN LUTHER KING BLVD", "STRCITY": "Malvern", "STRSTATE": "AR", "ZIPCODE": "72104", "type_store": "Supercenter", "LAT": 34.364093, "LON": -92.8146, "MONTH": "2", "DAY": "1", "YEAR": "1976" }, "geometry": { "type": "Point", "coordinates": [ -92.8146, 34.364093 ] } },
{ "type": "Feature", "properties": { "storenum": "148", "OPENDATE": "6\/1\/76", "date_super": "3\/1\/96", "conversion": "1", "st": "48", "county": "277", "STREETADDR": "3855 LAMAR AVENUE", "STRCITY": "Paris", "STRSTATE": "TX", "ZIPCODE": "75460", "type_store": "Supercenter", "LAT": 33.660274, "LON": -95.55958, "MONTH": "6", "DAY": "1", "YEAR": "1976" }, "geometry": { "type": "Point", "coordinates": [ -95.55958, 33.660274 ] } },
{ "type": "Feature", "properties": { "storenum": "101", "OPENDATE": "2\/1\/76", "date_super": "3\/1\/94", "conversion": "1", "st": "29", "county": "161", "STREETADDR": "500 SOUTH BISHOP", "STRCITY": "Rolla", "STRSTATE": "MO", "ZIPCODE": "65401", "type_store": "Supercenter", "LAT": 37.94384, "LON": -91.77105, "MONTH": "2", "DAY": "1", "YEAR": "1976" }, "geometry": { "type": "Point", "coordinates": [ -91.77105, 37.94384 ] } },
{ "type": "Feature", "properties": { "storenum": "99", "OPENDATE": "2\/1\/76", "date_super": "3\/1\/95", "conversion": "1", "st": "29", "county": "71", "STREETADDR": "1445 E CENTRAL", "STRCITY": "Union", "STRSTATE": "MO", "ZIPCODE": "63084", "type_store": "Supercenter", "LAT": 38.434806, "LON": -91.00353, "MONTH": "2", "DAY": "1", "YEAR": "1976" }, "geometry": { "type": "Point", "coordinates": [ -91.00353, 38.434806 ] } },
{ "type": "Feature", "properties": { "storenum": "146", "OPENDATE": "3\/1\/76", "date_super": "3\/1\/97", "conversion": "1", "st": "48", "county": "459", "STREETADDR": "1923 NORTH WOOD", "STRCITY": "Gilmer", "STRSTATE": "TX", "ZIPCODE": "75644", "type_store": "Supercenter", "LAT": 32.727128, "LON": -94.9577, "MONTH": "3", "DAY": "1", "YEAR": "1976" }, "geometry": { "type": "Point", "coordinates": [ -94.9577, 32.727128 ] } },
{ "type": "Feature", "properties": { "storenum": "145", "OPENDATE": "10\/1\/76", "date_super": "", "conversion": "", "st": "29", "county": "163", "STREETADDR": "3310 W GEORGIA STREET", "STRCITY": "Louisiana", "STRSTATE": "MO", "ZIPCODE": "63353", "type_store": "Wal-Mart", "LAT": 39.449012, "LON": -91.07518, "MONTH": "10", "DAY": "1", "YEAR": "1976" }, "geometry": { "type": "Point", "coordinates": [ -91.07518, 39.449012 ] } },
{ "type": "Feature", "properties": { "storenum": "144", "OPENDATE": "9\/1\/76", "date_super": "3\/1\/94", "conversion": "1", "st": "5", "county": "143", "STREETADDR": "2875 WEST 6TH STREET", "STRCITY": "Fayetteville", "STRSTATE": "AR", "ZIPCODE": "72704", "type_store": "Supercenter", "LAT": 36.096998, "LON": -94.2486, "MONTH": "9", "DAY": "1", "YEAR": "1976" }, "geometry": { "type": "Point", "coordinates": [ -94.2486, 36.096998 ] } },
{ "type": "Feature", "properties": { "storenum": "143", "OPENDATE": "6\/1\/76", "date_super": "3\/1\/00", "conversion": "1", "st": "21", "county": "157", "STREETADDR": "310 WEST 5TH STREET", "STRCITY": "Benton", "STRSTATE": "KY", "ZIPCODE": "42025", "type_store": "Supercenter", "LAT": 36.854812, "LON": -88.33515, "MONTH": "6", "DAY": "1", "YEAR": "1976" }, "geometry": { "type": "Point", "coordinates": [ -88.33515, 36.854812 ] } },
{ "type": "Feature", "properties": { "storenum": "142", "OPENDATE": "5\/1\/76", "date_super": "", "conversion": "", "st": "48", "county": "387", "STREETADDR": "2204 HWY 82 WEST", "STRCITY": "Clarksville", "STRSTATE": "TX", "ZIPCODE": "75426", "type_store": "Wal-Mart", "LAT": 33.626445, "LON": -95.03534, "MONTH": "5", "DAY": "1", "YEAR": "1976" }, "geometry": { "type": "Point", "coordinates": [ -95.03534, 33.626445 ] } },
{ "type": "Feature", "properties": { "storenum": "140", "OPENDATE": "9\/1\/76", "date_super": "7\/17\/02", "conversion": "1", "st": "48", "county": "5", "STREETADDR": "2500 DANIEL MCCALL DRIVE", "STRCITY": "Lufkin", "STRSTATE": "TX", "ZIPCODE": "75901", "type_store": "Supercenter", "LAT": 31.330567, "LON": -94.68667, "MONTH": "9", "DAY": "1", "YEAR": "1976" }, "geometry": { "type": "Point", "coordinates": [ -94.68667, 31.330567 ] } },
{ "type": "Feature", "properties": { "storenum": "141", "OPENDATE": "5\/1\/76", "date_super": "3\/1\/97", "conversion": "1", "st": "5", "county": "131", "STREETADDR": "8301 ROGERS AVENUE", "STRCITY": "Fort Smith", "STRSTATE": "AR", "ZIPCODE": "72903", "type_store": "Supercenter", "LAT": 35.357041, "LON": -94.36914, "MONTH": "5", "DAY": "1", "YEAR": "1976" }, "geometry": { "type": "Point", "coordinates": [ -94.36914, 35.357041 ] } },
{ "type": "Feature", "properties": { "storenum": "132", "OPENDATE": "2\/1\/76", "date_super": "", "conversion": "", "st": "40", "county": "73", "STREETADDR": "1213 SOUTH MAIN STREET", "STRCITY": "Kingfisher", "STRSTATE": "OK", "ZIPCODE": "73750", "type_store": "Wal-Mart", "LAT": 35.856216, "LON": -97.93743, "MONTH": "2", "DAY": "1", "YEAR": "1976" }, "geometry": { "type": "Point", "coordinates": [ -97.93743, 35.856216 ] } },
{ "type": "Feature", "properties": { "storenum": "152", "OPENDATE": "12\/1\/76", "date_super": "10\/27\/04", "conversion": "1", "st": "29", "county": "99", "STREETADDR": "12862 STATE ROAD 21", "STRCITY": "De Soto", "STRSTATE": "MO", "ZIPCODE": "63020", "type_store": "Supercenter", "LAT": 38.120303, "LON": -90.55426, "MONTH": "12", "DAY": "1", "YEAR": "1976" }, "geometry": { "type": "Point", "coordinates": [ -90.55426, 38.120303 ] } },
{ "type": "Feature", "properties": { "storenum": "153", "OPENDATE": "10\/1\/76", "date_super": "3\/1\/94", "conversion": "1", "st": "28", "county": "145", "STREETADDR": "202 PARK PLAZA", "STRCITY": "New Albany", "STRSTATE": "MS", "ZIPCODE": "38652", "type_store": "Supercenter", "LAT": 34.489085, "LON": -88.99973, "MONTH": "10", "DAY": "1", "YEAR": "1976" }, "geometry": { "type": "Point", "coordinates": [ -88.99973, 34.489085 ] } },
{ "type": "Feature", "properties": { "storenum": "133", "OPENDATE": "5\/1\/76", "date_super": "", "conversion": "", "st": "5", "county": "81", "STREETADDR": "1040 S CONSTITUTION", "STRCITY": "Ashdown", "STRSTATE": "AR", "ZIPCODE": "71822", "type_store": "Wal-Mart", "LAT": 33.675597, "LON": -94.13465, "MONTH": "5", "DAY": "1", "YEAR": "1976" }, "geometry": { "type": "Point", "coordinates": [ -94.13465, 33.675597 ] } },
{ "type": "Feature", "properties": { "storenum": "115", "OPENDATE": "9\/1\/76", "date_super": "", "conversion": "", "st": "28", "county": "25", "STREETADDR": "1445 HWY 45 NORTH", "STRCITY": "West Point", "STRSTATE": "MS", "ZIPCODE": "39773", "type_store": "Wal-Mart", "LAT": 33.619058, "LON": -88.64686, "MONTH": "9", "DAY": "1", "YEAR": "1976" }, "geometry": { "type": "Point", "coordinates": [ -88.64686, 33.619058 ] } },
{ "type": "Feature", "properties": { "storenum": "134", "OPENDATE": "8\/1\/76", "date_super": "", "conversion": "", "st": "40", "county": "9", "STREETADDR": "3105 WEST 3RD", "STRCITY": "Elk City", "STRSTATE": "OK", "ZIPCODE": "73644", "type_store": "Wal-Mart", "LAT": 35.405935, "LON": -99.41658, "MONTH": "8", "DAY": "1", "YEAR": "1976" }, "geometry": { "type": "Point", "coordinates": [ -99.41658, 35.405935 ] } },
{ "type": "Feature", "properties": { "storenum": "135", "OPENDATE": "4\/1\/76", "date_super": "10\/27\/04", "conversion": "1", "st": "29", "county": "117", "STREETADDR": "1000 GRAVES ST.", "STRCITY": "Chillicothe", "STRSTATE": "MO", "ZIPCODE": "64601", "type_store": "Supercenter", "LAT": 39.790132, "LON": -93.54803, "MONTH": "4", "DAY": "1", "YEAR": "1976" }, "geometry": { "type": "Point", "coordinates": [ -93.54803, 39.790132 ] } },
{ "type": "Feature", "properties": { "storenum": "119", "OPENDATE": "3\/1\/76", "date_super": "3\/1\/94", "conversion": "1", "st": "5", "county": "63", "STREETADDR": "3150 HARRISON STREET", "STRCITY": "Batesville", "STRSTATE": "AR", "ZIPCODE": "72501", "type_store": "Supercenter", "LAT": 35.78108, "LON": -91.63835, "MONTH": "3", "DAY": "1", "YEAR": "1976" }, "geometry": { "type": "Point", "coordinates": [ -91.63835, 35.78108 ] } },
{ "type": "Feature", "properties": { "storenum": "161", "OPENDATE": "5\/1\/77", "date_super": "2\/20\/02", "conversion": "1", "st": "47", "county": "17", "STREETADDR": "180 VETERANS DRIVE N", "STRCITY": "Huntingdon", "STRSTATE": "TN", "ZIPCODE": "38344", "type_store": "Supercenter", "LAT": 35.995802, "LON": -88.41385, "MONTH": "5", "DAY": "1", "YEAR": "1977" }, "geometry": { "type": "Point", "coordinates": [ -88.41385, 35.995802 ] } },
{ "type": "Feature", "properties": { "storenum": "138", "OPENDATE": "11\/1\/77", "date_super": "", "conversion": "", "st": "29", "county": "77", "STREETADDR": "1923 EAST KEARNEY", "STRCITY": "Springfield", "STRSTATE": "MO", "ZIPCODE": "65803", "type_store": "Wal-Mart", "LAT": 37.257053, "LON": -93.29015, "MONTH": "11", "DAY": "1", "YEAR": "1977" }, "geometry": { "type": "Point", "coordinates": [ -93.29015, 37.257053 ] } },
{ "type": "Feature", "properties": { "storenum": "149", "OPENDATE": "3\/1\/77", "date_super": "3\/1\/00", "conversion": "1", "st": "22", "county": "49", "STREETADDR": "184 OLD WINFIELD RD", "STRCITY": "Jonesboro", "STRSTATE": "LA", "ZIPCODE": "71251", "type_store": "Supercenter", "LAT": 32.229884, "LON": -92.69763, "MONTH": "3", "DAY": "1", "YEAR": "1977" }, "geometry": { "type": "Point", "coordinates": [ -92.69763, 32.229884 ] } },
{ "type": "Feature", "properties": { "storenum": "151", "OPENDATE": "3\/1\/77", "date_super": "3\/1\/94", "conversion": "1", "st": "40", "county": "121", "STREETADDR": "432 SOUTH GEORGE NIGH EXWY", "STRCITY": "McAlester", "STRSTATE": "OK", "ZIPCODE": "74501", "type_store": "Supercenter", "LAT": 34.944399, "LON": -95.75709, "MONTH": "3", "DAY": "1", "YEAR": "1977" }, "geometry": { "type": "Point", "coordinates": [ -95.75709, 34.944399 ] } },
{ "type": "Feature", "properties": { "storenum": "155", "OPENDATE": "8\/1\/77", "date_super": "3\/1\/94", "conversion": "1", "st": "28", "county": "137", "STREETADDR": "5219 HWY 51 NORTH", "STRCITY": "Senatobia", "STRSTATE": "MS", "ZIPCODE": "38668", "type_store": "Supercenter", "LAT": 34.607602, "LON": -89.94635, "MONTH": "8", "DAY": "1", "YEAR": "1977" }, "geometry": { "type": "Point", "coordinates": [ -89.94635, 34.607602 ] } },
{ "type": "Feature", "properties": { "storenum": "156", "OPENDATE": "1\/1\/77", "date_super": "", "conversion": "", "st": "29", "county": "155", "STREETADDR": "STATE HWY 84 WEST", "STRCITY": "Caruthersville", "STRSTATE": "MO", "ZIPCODE": "63830", "type_store": "Wal-Mart", "LAT": 36.174029, "LON": -89.67548, "MONTH": "1", "DAY": "1", "YEAR": "1977" }, "geometry": { "type": "Point", "coordinates": [ -89.67548, 36.174029 ] } },
{ "type": "Feature", "properties": { "storenum": "157", "OPENDATE": "1\/1\/77", "date_super": "3\/1\/94", "conversion": "1", "st": "5", "county": "145", "STREETADDR": "3509 EAST RACE AVENUE", "STRCITY": "Searcy", "STRSTATE": "AR", "ZIPCODE": "72143", "type_store": "Supercenter", "LAT": 35.239022, "LON": -91.73776, "MONTH": "1", "DAY": "1", "YEAR": "1977" }, "geometry": { "type": "Point", "coordinates": [ -91.73776, 35.239022 ] } },
{ "type": "Feature", "properties": { "storenum": "158", "OPENDATE": "5\/1\/77", "date_super": "3\/1\/97", "conversion": "1", "st": "48", "county": "147", "STREETADDR": "2021 NORTH HWY 121", "STRCITY": "Bonham", "STRSTATE": "TX", "ZIPCODE": "75418", "type_store": "Supercenter", "LAT": 33.583772, "LON": -96.1818, "MONTH": "5", "DAY": "1", "YEAR": "1977" }, "geometry": { "type": "Point", "coordinates": [ -96.1818, 33.583772 ] } },
{ "type": "Feature", "properties": { "storenum": "159", "OPENDATE": "3\/1\/77", "date_super": "3\/1\/98", "conversion": "1", "st": "29", "county": "19", "STREETADDR": "415 CONLEY ROAD", "STRCITY": "Columbia", "STRSTATE": "MO", "ZIPCODE": "65201", "type_store": "Supercenter", "LAT": 38.926838, "LON": -92.29003, "MONTH": "3", "DAY": "1", "YEAR": "1977" }, "geometry": { "type": "Point", "coordinates": [ -92.29003, 38.926838 ] } },
{ "type": "Feature", "properties": { "storenum": "160", "OPENDATE": "1\/1\/77", "date_super": "3\/1\/94", "conversion": "1", "st": "5", "county": "135", "STREETADDR": "219 HIGHWAY 412", "STRCITY": "Ashflat", "STRSTATE": "AR", "ZIPCODE": "72513", "type_store": "Supercenter", "LAT": 36.24564, "LON": -91.63703, "MONTH": "1", "DAY": "1", "YEAR": "1977" }, "geometry": { "type": "Point", "coordinates": [ -91.63703, 36.24564 ] } },
{ "type": "Feature", "properties": { "storenum": "162", "OPENDATE": "6\/1\/77", "date_super": "3\/1\/97", "conversion": "1", "st": "40", "county": "15", "STREETADDR": "1201 WEST PETREE RD", "STRCITY": "Anadarko", "STRSTATE": "OK", "ZIPCODE": "73005", "type_store": "Supercenter", "LAT": 35.050671, "LON": -98.23984, "MONTH": "6", "DAY": "1", "YEAR": "1977" }, "geometry": { "type": "Point", "coordinates": [ -98.23984, 35.050671 ] } },
{ "type": "Feature", "properties": { "storenum": "163", "OPENDATE": "2\/1\/77", "date_super": "3\/1\/93", "conversion": "1", "st": "48", "county": "347", "STREETADDR": "4810 NORTH STREET", "STRCITY": "Nacogdoches", "STRSTATE": "TX", "ZIPCODE": "75965", "type_store": "Supercenter", "LAT": 31.649582, "LON": -94.638278, "MONTH": "2", "DAY": "1", "YEAR": "1977" }, "geometry": { "type": "Point", "coordinates": [ -94.638278, 31.649582 ] } },
{ "type": "Feature", "properties": { "storenum": "164", "OPENDATE": "2\/1\/77", "date_super": "", "conversion": "", "st": "28", "county": "115", "STREETADDR": "350 WAL-MART CIRCLE", "STRCITY": "Pontotoc", "STRSTATE": "MS", "ZIPCODE": "38863", "type_store": "Wal-Mart", "LAT": 34.236312, "LON": -89.00425, "MONTH": "2", "DAY": "1", "YEAR": "1977" }, "geometry": { "type": "Point", "coordinates": [ -89.00425, 34.236312 ] } },
{ "type": "Feature", "properties": { "storenum": "165", "OPENDATE": "5\/1\/77", "date_super": "3\/1\/96", "conversion": "1", "st": "48", "county": "401", "STREETADDR": "2121 HWY 79 SOUTH", "STRCITY": "Henderson", "STRSTATE": "TX", "ZIPCODE": "75654", "type_store": "Supercenter", "LAT": 32.104159, "LON": -94.85568, "MONTH": "5", "DAY": "1", "YEAR": "1977" }, "geometry": { "type": "Point", "coordinates": [ -94.85568, 32.104159 ] } },
{ "type": "Feature", "properties": { "storenum": "166", "OPENDATE": "3\/1\/77", "date_super": "10\/30\/02", "conversion": "1", "st": "29", "county": "215", "STREETADDR": "1433 SO. SAM HOUSTON BLVD", "STRCITY": "Houston", "STRSTATE": "MO", "ZIPCODE": "65483", "type_store": "Supercenter", "LAT": 37.316088, "LON": -91.95471, "MONTH": "3", "DAY": "1", "YEAR": "1977" }, "geometry": { "type": "Point", "coordinates": [ -91.95471, 37.316088 ] } },
{ "type": "Feature", "properties": { "storenum": "167", "OPENDATE": "4\/1\/77", "date_super": "1\/26\/05", "conversion": "1", "st": "5", "county": "3", "STREETADDR": "910 UNITY ROAD", "STRCITY": "Crossett", "STRSTATE": "AR", "ZIPCODE": "71635", "type_store": "Supercenter", "LAT": 33.125032, "LON": -91.97037, "MONTH": "4", "DAY": "1", "YEAR": "1977" }, "geometry": { "type": "Point", "coordinates": [ -91.97037, 33.125032 ] } },
{ "type": "Feature", "properties": { "storenum": "169", "OPENDATE": "9\/1\/77", "date_super": "", "conversion": "", "st": "5", "county": "85", "STREETADDR": "1400 NORTH CENTER", "STRCITY": "Lonoke", "STRSTATE": "AR", "ZIPCODE": "72086", "type_store": "Wal-Mart", "LAT": 34.7964, "LON": -91.90949, "MONTH": "9", "DAY": "1", "YEAR": "1977" }, "geometry": { "type": "Point", "coordinates": [ -91.90949, 34.7964 ] } },
{ "type": "Feature", "properties": { "storenum": "170", "OPENDATE": "10\/1\/77", "date_super": "3\/1\/95", "conversion": "1", "st": "22", "county": "69", "STREETADDR": "925 KEYSER AVE", "STRCITY": "Natchitoches", "STRSTATE": "LA", "ZIPCODE": "71457", "type_store": "Supercenter", "LAT": 31.751287, "LON": -93.09021, "MONTH": "10", "DAY": "1", "YEAR": "1977" }, "geometry": { "type": "Point", "coordinates": [ -93.09021, 31.751287 ] } },
{ "type": "Feature", "properties": { "storenum": "171", "OPENDATE": "11\/1\/77", "date_super": "", "conversion": "", "st": "5", "county": "103", "STREETADDR": "1270 STATE HWY 4 BYPASS SW", "STRCITY": "Camden", "STRSTATE": "AR", "ZIPCODE": "71701", "type_store": "Wal-Mart", "LAT": 33.578096, "LON": -92.81368, "MONTH": "11", "DAY": "1", "YEAR": "1977" }, "geometry": { "type": "Point", "coordinates": [ -92.81368, 33.578096 ] } },
{ "type": "Feature", "properties": { "storenum": "172", "OPENDATE": "7\/1\/77", "date_super": "3\/1\/88", "conversion": "1", "st": "29", "county": "71", "STREETADDR": "5886 HWY 100", "STRCITY": "Washington", "STRSTATE": "MO", "ZIPCODE": "63090", "type_store": "Supercenter", "LAT": 38.535499, "LON": -91.02348, "MONTH": "7", "DAY": "1", "YEAR": "1977" }, "geometry": { "type": "Point", "coordinates": [ -91.02348, 38.535499 ] } },
{ "type": "Feature", "properties": { "storenum": "173", "OPENDATE": "10\/1\/77", "date_super": "5\/21\/03", "conversion": "1", "st": "29", "county": "221", "STREETADDR": "#1 MEMORIAL DRIVE", "STRCITY": "Potosi", "STRSTATE": "MO", "ZIPCODE": "63664", "type_store": "Supercenter", "LAT": 37.91496, "LON": -90.86797, "MONTH": "10", "DAY": "1", "YEAR": "1977" }, "geometry": { "type": "Point", "coordinates": [ -90.86797, 37.91496 ] } },
{ "type": "Feature", "properties": { "storenum": "175", "OPENDATE": "11\/1\/77", "date_super": "3\/1\/96", "conversion": "1", "st": "47", "county": "157", "STREETADDR": "560 WEST POPLAR AVE", "STRCITY": "Collierville", "STRSTATE": "TN", "ZIPCODE": "38017", "type_store": "Supercenter", "LAT": 35.057224, "LON": -89.67417, "MONTH": "11", "DAY": "1", "YEAR": "1977" }, "geometry": { "type": "Point", "coordinates": [ -89.67417, 35.057224 ] } },
{ "type": "Feature", "properties": { "storenum": "176", "OPENDATE": "7\/1\/77", "date_super": "", "conversion": "", "st": "28", "county": "139", "STREETADDR": "822 CITY AVENUE SOUTH", "STRCITY": "Ripley", "STRSTATE": "MS", "ZIPCODE": "38663", "type_store": "Wal-Mart", "LAT": 34.739023, "LON": -88.92629, "MONTH": "7", "DAY": "1", "YEAR": "1977" }, "geometry": { "type": "Point", "coordinates": [ -88.92629, 34.739023 ] } },
{ "type": "Feature", "properties": { "storenum": "177", "OPENDATE": "11\/1\/77", "date_super": "3\/1\/97", "conversion": "1", "st": "47", "county": "79", "STREETADDR": "1210 MINERAL WELL AV", "STRCITY": "Paris", "STRSTATE": "TN", "ZIPCODE": "38242", "type_store": "Supercenter", "LAT": 36.300311, "LON": -88.32891, "MONTH": "11", "DAY": "1", "YEAR": "1977" }, "geometry": { "type": "Point", "coordinates": [ -88.32891, 36.300311 ] } },
{ "type": "Feature", "properties": { "storenum": "178", "OPENDATE": "11\/1\/77", "date_super": "3\/1\/97", "conversion": "1", "st": "40", "county": "151", "STREETADDR": "914 E OKLAHOMA BLVD", "STRCITY": "Alva", "STRSTATE": "OK", "ZIPCODE": "73717", "type_store": "Supercenter", "LAT": 36.804875, "LON": -98.69707, "MONTH": "11", "DAY": "1", "YEAR": "1977" }, "geometry": { "type": "Point", "coordinates": [ -98.69707, 36.804875 ] } },
{ "type": "Feature", "properties": { "storenum": "179", "OPENDATE": "2\/1\/77", "date_super": "3\/14\/01", "conversion": "1", "st": "29", "county": "77", "STREETADDR": "3520 W SUNSHINE ST.", "STRCITY": "Springfield", "STRSTATE": "MO", "ZIPCODE": "65807", "type_store": "Supercenter", "LAT": 37.168435, "LON": -93.31297, "MONTH": "2", "DAY": "1", "YEAR": "1977" }, "geometry": { "type": "Point", "coordinates": [ -93.31297, 37.168435 ] } },
{ "type": "Feature", "properties": { "storenum": "183", "OPENDATE": "10\/1\/77", "date_super": "8\/25\/04", "conversion": "1", "st": "28", "county": "159", "STREETADDR": "159 HIGHWAY 15 SOUTH", "STRCITY": "Louisville", "STRSTATE": "MS", "ZIPCODE": "39339", "type_store": "Supercenter", "LAT": 33.109635, "LON": -89.02849, "MONTH": "10", "DAY": "1", "YEAR": "1977" }, "geometry": { "type": "Point", "coordinates": [ -89.02849, 33.109635 ] } },
{ "type": "Feature", "properties": { "storenum": "186", "OPENDATE": "11\/1\/77", "date_super": "10\/27\/04", "conversion": "1", "st": "20", "county": "15", "STREETADDR": "301 SO. VILLAGE ROAD", "STRCITY": "El Dorado", "STRSTATE": "KS", "ZIPCODE": "67042", "type_store": "Supercenter", "LAT": 37.830417, "LON": -96.84294, "MONTH": "11", "DAY": "1", "YEAR": "1977" }, "geometry": { "type": "Point", "coordinates": [ -96.84294, 37.830417 ] } },
{ "type": "Feature", "properties": { "storenum": "188", "OPENDATE": "7\/1\/77", "date_super": "3\/1\/94", "conversion": "1", "st": "29", "county": "31", "STREETADDR": "3439 WILLIAMS STREET", "STRCITY": "Cape Girardeau", "STRSTATE": "MO", "ZIPCODE": "63701", "type_store": "Supercenter", "LAT": 37.32564, "LON": -89.5659, "MONTH": "7", "DAY": "1", "YEAR": "1977" }, "geometry": { "type": "Point", "coordinates": [ -89.5659, 37.32564 ] } },
{ "type": "Feature", "properties": { "storenum": "189", "OPENDATE": "7\/1\/77", "date_super": "3\/1\/93", "conversion": "1", "st": "29", "county": "1", "STREETADDR": "2206 NORTH BALTIMORE", "STRCITY": "Kirksville", "STRSTATE": "MO", "ZIPCODE": "63501", "type_store": "Supercenter", "LAT": 40.183335, "LON": -92.58341, "MONTH": "7", "DAY": "1", "YEAR": "1977" }, "geometry": { "type": "Point", "coordinates": [ -92.58341, 40.183335 ] } },
{ "type": "Feature", "properties": { "storenum": "190", "OPENDATE": "7\/1\/77", "date_super": "3\/1\/95", "conversion": "1", "st": "29", "county": "69", "STREETADDR": "1500 EAST FIRST ST", "STRCITY": "Kennett", "STRSTATE": "MO", "ZIPCODE": "63857", "type_store": "Supercenter", "LAT": 36.237128, "LON": -90.04866, "MONTH": "7", "DAY": "1", "YEAR": "1977" }, "geometry": { "type": "Point", "coordinates": [ -90.04866, 36.237128 ] } },
{ "type": "Feature", "properties": { "storenum": "195", "OPENDATE": "7\/1\/77", "date_super": "", "conversion": "", "st": "29", "county": "47", "STREETADDR": "2203 PATSY LANE", "STRCITY": "Excelsior Springs", "STRSTATE": "MO", "ZIPCODE": "64024", "type_store": "Wal-Mart", "LAT": 39.340332, "LON": -94.22601, "MONTH": "7", "DAY": "1", "YEAR": "1977" }, "geometry": { "type": "Point", "coordinates": [ -94.22601, 39.340332 ] } },
{ "type": "Feature", "properties": { "storenum": "196", "OPENDATE": "7\/1\/77", "date_super": "3\/1\/93", "conversion": "1", "st": "17", "county": "77", "STREETADDR": "1450 EAST MAIN", "STRCITY": "Carbondale", "STRSTATE": "IL", "ZIPCODE": "62901", "type_store": "Supercenter", "LAT": 37.707763, "LON": -89.19246, "MONTH": "7", "DAY": "1", "YEAR": "1977" }, "geometry": { "type": "Point", "coordinates": [ -89.19246, 37.707763 ] } },
{ "type": "Feature", "properties": { "storenum": "197", "OPENDATE": "7\/1\/77", "date_super": "8\/27\/03", "conversion": "1", "st": "17", "county": "109", "STREETADDR": "1730 E JACKSON ROAD", "STRCITY": "Macomb", "STRSTATE": "IL", "ZIPCODE": "61455", "type_store": "Supercenter", "LAT": 40.456986, "LON": -90.6681, "MONTH": "7", "DAY": "1", "YEAR": "1977" }, "geometry": { "type": "Point", "coordinates": [ -90.6681, 40.456986 ] } },
{ "type": "Feature", "properties": { "storenum": "198", "OPENDATE": "7\/1\/77", "date_super": "4\/16\/03", "conversion": "1", "st": "17", "county": "121", "STREETADDR": "1870 WEST MAIN ST.", "STRCITY": "Salem", "STRSTATE": "IL", "ZIPCODE": "62881", "type_store": "Supercenter", "LAT": 38.623789, "LON": -88.95361, "MONTH": "7", "DAY": "1", "YEAR": "1977" }, "geometry": { "type": "Point", "coordinates": [ -88.95361, 38.623789 ] } },
{ "type": "Feature", "properties": { "storenum": "199", "OPENDATE": "7\/1\/77", "date_super": "", "conversion": "", "st": "17", "county": "107", "STREETADDR": "1501 WOODLAWN ROAD", "STRCITY": "Lincoln", "STRSTATE": "IL", "ZIPCODE": "62656", "type_store": "Wal-Mart", "LAT": 40.149927, "LON": -89.36746, "MONTH": "7", "DAY": "1", "YEAR": "1977" }, "geometry": { "type": "Point", "coordinates": [ -89.36746, 40.149927 ] } },
{ "type": "Feature", "properties": { "storenum": "200", "OPENDATE": "7\/1\/77", "date_super": "", "conversion": "", "st": "17", "county": "137", "STREETADDR": "1205 W MORTON ROAD", "STRCITY": "Jacksonville", "STRSTATE": "IL", "ZIPCODE": "62650", "type_store": "Wal-Mart", "LAT": 39.730234, "LON": -90.22941, "MONTH": "7", "DAY": "1", "YEAR": "1977" }, "geometry": { "type": "Point", "coordinates": [ -90.22941, 39.730234 ] } },
{ "type": "Feature", "properties": { "storenum": "201", "OPENDATE": "7\/1\/77", "date_super": "", "conversion": "", "st": "17", "county": "163", "STREETADDR": "120 CARLYLE PLAZA DRIVE", "STRCITY": "Belleville", "STRSTATE": "IL", "ZIPCODE": "62221", "type_store": "Wal-Mart", "LAT": 38.532311, "LON": -89.93996, "MONTH": "7", "DAY": "1", "YEAR": "1977" }, "geometry": { "type": "Point", "coordinates": [ -89.93996, 38.532311 ] } },
{ "type": "Feature", "properties": { "storenum": "212", "OPENDATE": "11\/1\/77", "date_super": "3\/1\/99", "conversion": "1", "st": "40", "county": "27", "STREETADDR": "333 INTERSTATE DRIVE", "STRCITY": "Norman", "STRSTATE": "OK", "ZIPCODE": "73069", "type_store": "Supercenter", "LAT": 35.228649, "LON": -97.45629, "MONTH": "11", "DAY": "1", "YEAR": "1977" }, "geometry": { "type": "Point", "coordinates": [ -97.45629, 35.228649 ] } },
{ "type": "Feature", "properties": { "storenum": "224", "OPENDATE": "6\/13\/78", "date_super": "3\/1\/97", "conversion": "1", "st": "17", "county": "81", "STREETADDR": "110 DAVIDSON AVENUE", "STRCITY": "Mount Vernon", "STRSTATE": "IL", "ZIPCODE": "62864", "type_store": "Supercenter", "LAT": 38.322558, "LON": -88.90842, "MONTH": "6", "DAY": "13", "YEAR": "1978" }, "geometry": { "type": "Point", "coordinates": [ -88.90842, 38.322558 ] } },
{ "type": "Feature", "properties": { "storenum": "226", "OPENDATE": "10\/17\/78", "date_super": "3\/1\/97", "conversion": "1", "st": "48", "county": "67", "STREETADDR": "201 US HWY 59 LOOP", "STRCITY": "Atlanta", "STRSTATE": "TX", "ZIPCODE": "75551", "type_store": "Supercenter", "LAT": 33.118611, "LON": -94.1773, "MONTH": "10", "DAY": "17", "YEAR": "1978" }, "geometry": { "type": "Point", "coordinates": [ -94.1773, 33.118611 ] } },
{ "type": "Feature", "properties": { "storenum": "227", "OPENDATE": "10\/10\/78", "date_super": "3\/1\/95", "conversion": "1", "st": "40", "county": "17", "STREETADDR": "2400 SOUTH COUNTRY CLUB ROAD", "STRCITY": "El Reno", "STRSTATE": "OK", "ZIPCODE": "73036", "type_store": "Supercenter", "LAT": 35.519046, "LON": -97.95534, "MONTH": "10", "DAY": "10", "YEAR": "1978" }, "geometry": { "type": "Point", "coordinates": [ -97.95534, 35.519046 ] } },
{ "type": "Feature", "properties": { "storenum": "228", "OPENDATE": "9\/19\/78", "date_super": "3\/1\/95", "conversion": "1", "st": "48", "county": "251", "STREETADDR": "1616 WEST HENDERSON", "STRCITY": "Cleburne", "STRSTATE": "TX", "ZIPCODE": "76031", "type_store": "Supercenter", "LAT": 32.343115, "LON": -97.40081, "MONTH": "9", "DAY": "19", "YEAR": "1978" }, "geometry": { "type": "Point", "coordinates": [ -97.40081, 32.343115 ] } },
{ "type": "Feature", "properties": { "storenum": "168", "OPENDATE": "2\/7\/78", "date_super": "3\/1\/00", "conversion": "1", "st": "40", "county": "143", "STREETADDR": "12101 E 96TH ST. N", "STRCITY": "Owasso", "STRSTATE": "OK", "ZIPCODE": "74055", "type_store": "Supercenter", "LAT": 36.278298, "LON": -95.8305, "MONTH": "2", "DAY": "7", "YEAR": "1978" }, "geometry": { "type": "Point", "coordinates": [ -95.8305, 36.278298 ] } },
{ "type": "Feature", "properties": { "storenum": "128", "OPENDATE": "8\/1\/78", "date_super": "3\/1\/98", "conversion": "1", "st": "5", "county": "31", "STREETADDR": "1911 WEST PARKER RD", "STRCITY": "Jonesboro", "STRSTATE": "AR", "ZIPCODE": "72404", "type_store": "Supercenter", "LAT": 35.781707, "LON": -90.74506, "MONTH": "8", "DAY": "1", "YEAR": "1978" }, "geometry": { "type": "Point", "coordinates": [ -90.74506, 35.781707 ] } },
{ "type": "Feature", "properties": { "storenum": "237", "OPENDATE": "11\/14\/78", "date_super": "", "conversion": "", "st": "17", "county": "165", "STREETADDR": "16 ARROWHEAD POINT SHPCNTR", "STRCITY": "Harrisburg", "STRSTATE": "IL", "ZIPCODE": "62946", "type_store": "Wal-Mart", "LAT": 37.725834, "LON": -88.54208, "MONTH": "11", "DAY": "14", "YEAR": "1978" }, "geometry": { "type": "Point", "coordinates": [ -88.54208, 37.725834 ] } },
{ "type": "Feature", "properties": { "storenum": "235", "OPENDATE": "11\/28\/78", "date_super": "", "conversion": "", "st": "5", "county": "21", "STREETADDR": "1900 WEST MAIN", "STRCITY": "Corning", "STRSTATE": "AR", "ZIPCODE": "72422", "type_store": "Wal-Mart", "LAT": 36.410344, "LON": -90.56479, "MONTH": "11", "DAY": "28", "YEAR": "1978" }, "geometry": { "type": "Point", "coordinates": [ -90.56479, 36.410344 ] } },
{ "type": "Feature", "properties": { "storenum": "234", "OPENDATE": "12\/5\/78", "date_super": "3\/1\/04", "conversion": "1", "st": "29", "county": "47", "STREETADDR": "8301 NO. CHURCH ROAD", "STRCITY": "Liberty", "STRSTATE": "MO", "ZIPCODE": "64158", "type_store": "Supercenter", "LAT": 39.230259, "LON": -94.47794, "MONTH": "12", "DAY": "5", "YEAR": "1978" }, "geometry": { "type": "Point", "coordinates": [ -94.47794, 39.230259 ] } },
{ "type": "Feature", "properties": { "storenum": "233", "OPENDATE": "11\/21\/78", "date_super": "3\/1\/98", "conversion": "1", "st": "17", "county": "181", "STREETADDR": "300 LEIGH AVE", "STRCITY": "Anna", "STRSTATE": "IL", "ZIPCODE": "62906", "type_store": "Supercenter", "LAT": 37.457806, "LON": -89.21408, "MONTH": "11", "DAY": "21", "YEAR": "1978" }, "geometry": { "type": "Point", "coordinates": [ -89.21408, 37.457806 ] } },
{ "type": "Feature", "properties": { "storenum": "232", "OPENDATE": "9\/19\/78", "date_super": "", "conversion": "", "st": "40", "county": "5", "STREETADDR": "1901 SOUTH MISSISSIPPI", "STRCITY": "Atoka", "STRSTATE": "OK", "ZIPCODE": "74525", "type_store": "Wal-Mart", "LAT": 34.347553, "LON": -96.11276, "MONTH": "9", "DAY": "19", "YEAR": "1978" }, "geometry": { "type": "Point", "coordinates": [ -96.11276, 34.347553 ] } },
{ "type": "Feature", "properties": { "storenum": "231", "OPENDATE": "9\/19\/78", "date_super": "3\/1\/95", "conversion": "1", "st": "40", "county": "123", "STREETADDR": "1419 N. COUNTRY CLUB RD.", "STRCITY": "Ada", "STRSTATE": "OK", "ZIPCODE": "74820", "type_store": "Supercenter", "LAT": 34.780243, "LON": -96.68761, "MONTH": "9", "DAY": "19", "YEAR": "1978" }, "geometry": { "type": "Point", "coordinates": [ -96.68761, 34.780243 ] } },
{ "type": "Feature", "properties": { "storenum": "230", "OPENDATE": "12\/5\/78", "date_super": "", "conversion": "", "st": "5", "county": "83", "STREETADDR": "1501 EAST WALNUT STREET", "STRCITY": "Paris", "STRSTATE": "AR", "ZIPCODE": "72855", "type_store": "Wal-Mart", "LAT": 35.293281, "LON": -93.72139, "MONTH": "12", "DAY": "5", "YEAR": "1978" }, "geometry": { "type": "Point", "coordinates": [ -93.72139, 35.293281 ] } },
{ "type": "Feature", "properties": { "storenum": "203", "OPENDATE": "8\/29\/78", "date_super": "3\/1\/98", "conversion": "1", "st": "29", "county": "115", "STREETADDR": "937 PARK CIRCLE DR", "STRCITY": "Brookfield", "STRSTATE": "MO", "ZIPCODE": "64628", "type_store": "Supercenter", "LAT": 39.792042, "LON": -93.04973, "MONTH": "8", "DAY": "29", "YEAR": "1978" }, "geometry": { "type": "Point", "coordinates": [ -93.04973, 39.792042 ] } },
{ "type": "Feature", "properties": { "storenum": "204", "OPENDATE": "2\/14\/78", "date_super": "", "conversion": "", "st": "21", "county": "33", "STREETADDR": "500 US HWY 62 WEST", "STRCITY": "Princeton", "STRSTATE": "KY", "ZIPCODE": "42445", "type_store": "Wal-Mart", "LAT": 37.12596, "LON": -87.87429, "MONTH": "2", "DAY": "14", "YEAR": "1978" }, "geometry": { "type": "Point", "coordinates": [ -87.87429, 37.12596 ] } },
{ "type": "Feature", "properties": { "storenum": "205", "OPENDATE": "3\/28\/78", "date_super": "3\/1\/94", "conversion": "1", "st": "28", "county": "99", "STREETADDR": "1002 BEACON STREET", "STRCITY": "Philadelphia", "STRSTATE": "MS", "ZIPCODE": "39350", "type_store": "Supercenter", "LAT": 32.776368, "LON": -89.12788, "MONTH": "3", "DAY": "28", "YEAR": "1978" }, "geometry": { "type": "Point", "coordinates": [ -89.12788, 32.776368 ] } },
{ "type": "Feature", "properties": { "storenum": "206", "OPENDATE": "3\/28\/78", "date_super": "7\/20\/05", "conversion": "1", "st": "48", "county": "85", "STREETADDR": "2041 REDBUD BLVD", "STRCITY": "McKinney", "STRSTATE": "TX", "ZIPCODE": "75069", "type_store": "Supercenter", "LAT": 33.195073, "LON": -96.60363, "MONTH": "3", "DAY": "28", "YEAR": "1978" }, "geometry": { "type": "Point", "coordinates": [ -96.60363, 33.195073 ] } },
{ "type": "Feature", "properties": { "storenum": "207", "OPENDATE": "3\/21\/78", "date_super": "", "conversion": "", "st": "40", "county": "117", "STREETADDR": "1004 NORTH BROADWAY", "STRCITY": "Cleveland", "STRSTATE": "OK", "ZIPCODE": "74020", "type_store": "Wal-Mart", "LAT": 36.260645, "LON": -96.39586, "MONTH": "3", "DAY": "21", "YEAR": "1978" }, "geometry": { "type": "Point", "coordinates": [ -96.39586, 36.260645 ] } },
{ "type": "Feature", "properties": { "storenum": "208", "OPENDATE": "4\/4\/78", "date_super": "", "conversion": "", "st": "20", "county": "21", "STREETADDR": "2970 MILITARY AVENUE", "STRCITY": "Baxter Springs", "STRSTATE": "KS", "ZIPCODE": "66713", "type_store": "Wal-Mart", "LAT": 37.026091, "LON": -94.74929, "MONTH": "4", "DAY": "4", "YEAR": "1978" }, "geometry": { "type": "Point", "coordinates": [ -94.74929, 37.026091 ] } },
{ "type": "Feature", "properties": { "storenum": "209", "OPENDATE": "6\/1\/78", "date_super": "", "conversion": "", "st": "5", "county": "47", "STREETADDR": "1516 NORTH 18TH STREET", "STRCITY": "Ozark", "STRSTATE": "AR", "ZIPCODE": "72949", "type_store": "Wal-Mart", "LAT": 35.549469, "LON": -93.81819, "MONTH": "6", "DAY": "1", "YEAR": "1978" }, "geometry": { "type": "Point", "coordinates": [ -93.81819, 35.549469 ] } },
{ "type": "Feature", "properties": { "storenum": "210", "OPENDATE": "7\/18\/78", "date_super": "", "conversion": "", "st": "40", "county": "63", "STREETADDR": "500 EAST HIGHWAY 270", "STRCITY": "Holdenville", "STRSTATE": "OK", "ZIPCODE": "74848", "type_store": "Wal-Mart", "LAT": 35.088636, "LON": -96.38778, "MONTH": "7", "DAY": "18", "YEAR": "1978" }, "geometry": { "type": "Point", "coordinates": [ -96.38778, 35.088636 ] } },
{ "type": "Feature", "properties": { "storenum": "211", "OPENDATE": "9\/12\/78", "date_super": "3\/1\/98", "conversion": "1", "st": "48", "county": "217", "STREETADDR": "401 COKE STREET", "STRCITY": "Hillsboro", "STRSTATE": "TX", "ZIPCODE": "76645", "type_store": "Supercenter", "LAT": 32.015496, "LON": -97.12263, "MONTH": "9", "DAY": "12", "YEAR": "1978" }, "geometry": { "type": "Point", "coordinates": [ -97.12263, 32.015496 ] } },
{ "type": "Feature", "properties": { "storenum": "229", "OPENDATE": "10\/31\/78", "date_super": "9\/15\/04", "conversion": "1", "st": "5", "county": "111", "STREETADDR": "512 INDUSTRIAL DRIVE", "STRCITY": "Trumann", "STRSTATE": "AR", "ZIPCODE": "72472", "type_store": "Supercenter", "LAT": 35.623029, "LON": -90.52742, "MONTH": "10", "DAY": "31", "YEAR": "1978" }, "geometry": { "type": "Point", "coordinates": [ -90.52742, 35.623029 ] } },
{ "type": "Feature", "properties": { "storenum": "213", "OPENDATE": "5\/16\/78", "date_super": "3\/1\/99", "conversion": "1", "st": "17", "county": "135", "STREETADDR": "1205 WEST FERDON ST", "STRCITY": "Litchfield", "STRSTATE": "IL", "ZIPCODE": "62056", "type_store": "Supercenter", "LAT": 39.179875, "LON": -89.65721, "MONTH": "5", "DAY": "16", "YEAR": "1978" }, "geometry": { "type": "Point", "coordinates": [ -89.65721, 39.179875 ] } },
{ "type": "Feature", "properties": { "storenum": "214", "OPENDATE": "10\/10\/78", "date_super": "3\/1\/94", "conversion": "1", "st": "48", "county": "241", "STREETADDR": "800 WEST GIBSON", "STRCITY": "Jasper", "STRSTATE": "TX", "ZIPCODE": "75951", "type_store": "Supercenter", "LAT": 30.941282, "LON": -94.03455, "MONTH": "10", "DAY": "10", "YEAR": "1978" }, "geometry": { "type": "Point", "coordinates": [ -94.03455, 30.941282 ] } },
{ "type": "Feature", "properties": { "storenum": "184", "OPENDATE": "2\/1\/78", "date_super": "5\/25\/05", "conversion": "1", "st": "29", "county": "95", "STREETADDR": "600 N.E. CORONADO DRIVE", "STRCITY": "Blue Springs", "STRSTATE": "MO", "ZIPCODE": "64014", "type_store": "Supercenter", "LAT": 39.017559, "LON": -94.25767, "MONTH": "2", "DAY": "1", "YEAR": "1978" }, "geometry": { "type": "Point", "coordinates": [ -94.25767, 39.017559 ] } },
{ "type": "Feature", "properties": { "storenum": "181", "OPENDATE": "8\/8\/78", "date_super": "5\/18\/05", "conversion": "1", "st": "48", "county": "37", "STREETADDR": "800 JAMES BOWIE DRIVE", "STRCITY": "New Boston", "STRSTATE": "TX", "ZIPCODE": "75570", "type_store": "Supercenter", "LAT": 33.465282, "LON": -94.41954, "MONTH": "8", "DAY": "8", "YEAR": "1978" }, "geometry": { "type": "Point", "coordinates": [ -94.41954, 33.465282 ] } },
{ "type": "Feature", "properties": { "storenum": "217", "OPENDATE": "9\/5\/78", "date_super": "3\/1\/99", "conversion": "1", "st": "48", "county": "121", "STREETADDR": "801 WEST MAIN", "STRCITY": "Lewisville", "STRSTATE": "TX", "ZIPCODE": "75067", "type_store": "Supercenter", "LAT": 33.020118, "LON": -97.00771, "MONTH": "9", "DAY": "5", "YEAR": "1978" }, "geometry": { "type": "Point", "coordinates": [ -97.00771, 33.020118 ] } },
{ "type": "Feature", "properties": { "storenum": "180", "OPENDATE": "3\/14\/78", "date_super": "3\/1\/94", "conversion": "1", "st": "48", "county": "73", "STREETADDR": "1311 SOUTH JACKSON", "STRCITY": "Jacksonville", "STRSTATE": "TX", "ZIPCODE": "75766", "type_store": "Supercenter", "LAT": 31.953855, "LON": -95.25281, "MONTH": "3", "DAY": "14", "YEAR": "1978" }, "geometry": { "type": "Point", "coordinates": [ -95.25281, 31.953855 ] } },
{ "type": "Feature", "properties": { "storenum": "219", "OPENDATE": "10\/3\/78", "date_super": "3\/1\/93", "conversion": "1", "st": "29", "county": "159", "STREETADDR": "3201 WEST BROADWAY", "STRCITY": "Sedalia", "STRSTATE": "MO", "ZIPCODE": "65301", "type_store": "Supercenter", "LAT": 38.702964, "LON": -93.23231, "MONTH": "10", "DAY": "3", "YEAR": "1978" }, "geometry": { "type": "Point", "coordinates": [ -93.23231, 38.702964 ] } },
{ "type": "Feature", "properties": { "storenum": "220", "OPENDATE": "10\/17\/78", "date_super": "3\/1\/95", "conversion": "1", "st": "48", "county": "251", "STREETADDR": "951 SW WILSHIRE BLVD", "STRCITY": "Burleson", "STRSTATE": "TX", "ZIPCODE": "76028", "type_store": "Supercenter", "LAT": 32.535841, "LON": -97.30681, "MONTH": "10", "DAY": "17", "YEAR": "1978" }, "geometry": { "type": "Point", "coordinates": [ -97.30681, 32.535841 ] } },
{ "type": "Feature", "properties": { "storenum": "221", "OPENDATE": "10\/31\/78", "date_super": "3\/1\/94", "conversion": "1", "st": "40", "county": "17", "STREETADDR": "1200 GARTH BROOKS BLVD", "STRCITY": "Yukon", "STRSTATE": "OK", "ZIPCODE": "73099", "type_store": "Supercenter", "LAT": 35.506204, "LON": -97.74814, "MONTH": "10", "DAY": "31", "YEAR": "1978" }, "geometry": { "type": "Point", "coordinates": [ -97.74814, 35.506204 ] } },
{ "type": "Feature", "properties": { "storenum": "222", "OPENDATE": "12\/5\/78", "date_super": "3\/1\/96", "conversion": "1", "st": "17", "county": "157", "STREETADDR": "1410 N MARKET ST", "STRCITY": "Sparta", "STRSTATE": "IL", "ZIPCODE": "62286", "type_store": "Supercenter", "LAT": 38.122112, "LON": -89.71168, "MONTH": "12", "DAY": "5", "YEAR": "1978" }, "geometry": { "type": "Point", "coordinates": [ -89.71168, 38.122112 ] } },
{ "type": "Feature", "properties": { "storenum": "225", "OPENDATE": "10\/24\/78", "date_super": "", "conversion": "", "st": "40", "county": "99", "STREETADDR": "2108 WEST BROADWAY", "STRCITY": "Sulphur", "STRSTATE": "OK", "ZIPCODE": "73086", "type_store": "Wal-Mart", "LAT": 34.49284, "LON": -96.98606, "MONTH": "10", "DAY": "24", "YEAR": "1978" }, "geometry": { "type": "Point", "coordinates": [ -96.98606, 34.49284 ] } },
{ "type": "Feature", "properties": { "storenum": "240", "OPENDATE": "6\/19\/79", "date_super": "3\/1\/00", "conversion": "1", "st": "48", "county": "231", "STREETADDR": "2701 HWY 50", "STRCITY": "Commerce", "STRSTATE": "TX", "ZIPCODE": "75428", "type_store": "Supercenter", "LAT": 33.25868, "LON": -95.91061, "MONTH": "6", "DAY": "19", "YEAR": "1979" }, "geometry": { "type": "Point", "coordinates": [ -95.91061, 33.25868 ] } },
{ "type": "Feature", "properties": { "storenum": "215", "OPENDATE": "5\/15\/79", "date_super": "", "conversion": "", "st": "28", "county": "97", "STREETADDR": "620 SOUTH APPLEGATE ST", "STRCITY": "Winona", "STRSTATE": "MS", "ZIPCODE": "38967", "type_store": "Wal-Mart", "LAT": 33.481491, "LON": -89.73155, "MONTH": "5", "DAY": "15", "YEAR": "1979" }, "geometry": { "type": "Point", "coordinates": [ -89.73155, 33.481491 ] } },
{ "type": "Feature", "properties": { "storenum": "216", "OPENDATE": "3\/27\/79", "date_super": "", "conversion": "", "st": "17", "county": "199", "STREETADDR": "2705 WALTON WAY", "STRCITY": "Marion", "STRSTATE": "IL", "ZIPCODE": "62959", "type_store": "Wal-Mart", "LAT": 37.724504, "LON": -88.92968, "MONTH": "3", "DAY": "27", "YEAR": "1979" }, "geometry": { "type": "Point", "coordinates": [ -88.92968, 37.724504 ] } },
{ "type": "Feature", "properties": { "storenum": "218", "OPENDATE": "4\/10\/79", "date_super": "3\/1\/98", "conversion": "1", "st": "47", "county": "109", "STREETADDR": "1017 MULBERRY AVENUE", "STRCITY": "Selmer", "STRSTATE": "TN", "ZIPCODE": "38375", "type_store": "Supercenter", "LAT": 35.165045, "LON": -88.59327, "MONTH": "4", "DAY": "10", "YEAR": "1979" }, "geometry": { "type": "Point", "coordinates": [ -88.59327, 35.165045 ] } },
{ "type": "Feature", "properties": { "storenum": "236", "OPENDATE": "2\/1\/79", "date_super": "3\/1\/98", "conversion": "1", "st": "48", "county": "225", "STREETADDR": "1225 E LOOP 304", "STRCITY": "Crockett", "STRSTATE": "TX", "ZIPCODE": "75835", "type_store": "Supercenter", "LAT": 31.315837, "LON": -95.47393, "MONTH": "2", "DAY": "1", "YEAR": "1979" }, "geometry": { "type": "Point", "coordinates": [ -95.47393, 31.315837 ] } },
{ "type": "Feature", "properties": { "storenum": "238", "OPENDATE": "2\/13\/79", "date_super": "3\/1\/99", "conversion": "1", "st": "47", "county": "55", "STREETADDR": "1655 WEST COLLEGE STREET", "STRCITY": "Pulaski", "STRSTATE": "TN", "ZIPCODE": "38478", "type_store": "Supercenter", "LAT": 35.204983, "LON": -87.01246, "MONTH": "2", "DAY": "13", "YEAR": "1979" }, "geometry": { "type": "Point", "coordinates": [ -87.01246, 35.204983 ] } },
{ "type": "Feature", "properties": { "storenum": "239", "OPENDATE": "7\/31\/79", "date_super": "3\/1\/98", "conversion": "1", "st": "28", "county": "7", "STREETADDR": "220 VETERAN MEM DR", "STRCITY": "Kosciusko", "STRSTATE": "MS", "ZIPCODE": "39090", "type_store": "Supercenter", "LAT": 33.038079, "LON": -89.56318, "MONTH": "7", "DAY": "31", "YEAR": "1979" }, "geometry": { "type": "Point", "coordinates": [ -89.56318, 33.038079 ] } },
{ "type": "Feature", "properties": { "storenum": "242", "OPENDATE": "9\/18\/79", "date_super": "3\/1\/98", "conversion": "1", "st": "20", "county": "121", "STREETADDR": "310 HEDGE LANE", "STRCITY": "Paola", "STRSTATE": "KS", "ZIPCODE": "66071", "type_store": "Supercenter", "LAT": 38.574804, "LON": -94.86706, "MONTH": "9", "DAY": "18", "YEAR": "1979" }, "geometry": { "type": "Point", "coordinates": [ -94.86706, 38.574804 ] } },
{ "type": "Feature", "properties": { "storenum": "244", "OPENDATE": "7\/31\/79", "date_super": "3\/1\/99", "conversion": "1", "st": "22", "county": "127", "STREETADDR": "5940 HWY 167 NORTH", "STRCITY": "Winnfield", "STRSTATE": "LA", "ZIPCODE": "71483", "type_store": "Supercenter", "LAT": 31.915828, "LON": -92.6445, "MONTH": "7", "DAY": "31", "YEAR": "1979" }, "geometry": { "type": "Point", "coordinates": [ -92.6445, 31.915828 ] } },
{ "type": "Feature", "properties": { "storenum": "246", "OPENDATE": "9\/18\/79", "date_super": "8\/24\/05", "conversion": "1", "st": "40", "county": "113", "STREETADDR": "823 WEST ROGERS BLVD", "STRCITY": "Skiatook", "STRSTATE": "OK", "ZIPCODE": "74070", "type_store": "Supercenter", "LAT": 36.381305, "LON": -96.03998, "MONTH": "9", "DAY": "18", "YEAR": "1979" }, "geometry": { "type": "Point", "coordinates": [ -96.03998, 36.381305 ] } },
{ "type": "Feature", "properties": { "storenum": "247", "OPENDATE": "3\/13\/79", "date_super": "", "conversion": "", "st": "40", "county": "111", "STREETADDR": "605 EAST MAIN", "STRCITY": "Henryetta", "STRSTATE": "OK", "ZIPCODE": "74437", "type_store": "Wal-Mart", "LAT": 35.447961, "LON": -95.95038, "MONTH": "3", "DAY": "13", "YEAR": "1979" }, "geometry": { "type": "Point", "coordinates": [ -95.95038, 35.447961 ] } },
{ "type": "Feature", "properties": { "storenum": "248", "OPENDATE": "8\/28\/79", "date_super": "3\/1\/00", "conversion": "1", "st": "48", "county": "293", "STREETADDR": "1406 EAST MILAM", "STRCITY": "Mexia", "STRSTATE": "TX", "ZIPCODE": "76667", "type_store": "Supercenter", "LAT": 31.669823, "LON": -96.48721, "MONTH": "8", "DAY": "28", "YEAR": "1979" }, "geometry": { "type": "Point", "coordinates": [ -96.48721, 31.669823 ] } },
{ "type": "Feature", "properties": { "storenum": "249", "OPENDATE": "3\/6\/79", "date_super": "3\/1\/00", "conversion": "1", "st": "48", "county": "291", "STREETADDR": "831 HWY 59 SOUTH", "STRCITY": "Cleveland", "STRSTATE": "TX", "ZIPCODE": "77327", "type_store": "Supercenter", "LAT": 30.35469, "LON": -95.04514, "MONTH": "3", "DAY": "6", "YEAR": "1979" }, "geometry": { "type": "Point", "coordinates": [ -95.04514, 30.35469 ] } },
{ "type": "Feature", "properties": { "storenum": "250", "OPENDATE": "3\/27\/79", "date_super": "10\/29\/03", "conversion": "1", "st": "29", "county": "15", "STREETADDR": "103 WEST POLK ST", "STRCITY": "Warsaw", "STRSTATE": "MO", "ZIPCODE": "65355", "type_store": "Supercenter", "LAT": 38.242861, "LON": -93.36354, "MONTH": "3", "DAY": "27", "YEAR": "1979" }, "geometry": { "type": "Point", "coordinates": [ -93.36354, 38.242861 ] } },
{ "type": "Feature", "properties": { "storenum": "251", "OPENDATE": "7\/10\/79", "date_super": "3\/1\/94", "conversion": "1", "st": "48", "county": "499", "STREETADDR": "135 NE LOOP 564", "STRCITY": "Mineola", "STRSTATE": "TX", "ZIPCODE": "75773", "type_store": "Supercenter", "LAT": 32.674657, "LON": -95.46982, "MONTH": "7", "DAY": "10", "YEAR": "1979" }, "geometry": { "type": "Point", "coordinates": [ -95.46982, 32.674657 ] } },